,npi_number,name,url,street_address,city,state,zip_code,publish_date,combined_address,latitude,longitude
0,1376577247,Albany Medical Center,https://www.amc.edu/sPBS/PriceTransparency/Dec2020/141338307_AlbanyMedicalCenter_standardcharges.csv,43 New Scotland Ave,Albany,NY,12208,2020-12-01 00:00:00 +0000 UTC,"['43 New Scotland Ave', 'Albany', 'NY']",42.653810500000006,-73.77695851652038
1,1376577247-A,Albany Medical Center - Lab Services,https://www.amc.edu/sPBS/PriceTransparency/Dec2020/141338307_AlbanyMedicalCenter_standardcharges.csv,43 New Scotland Ave,Albany,NY,12208,2020-12-01 00:00:00 +0000 UTC,"['43 New Scotland Ave', 'Albany', 'NY']",42.653810500000006,-73.77695851652038
2,1376579557,Eastern Maine Healthcare Systems Inland Hospital,https://northernlighthealth.org/Billing-and-Financial-Services/DRG-and-Standard-Charge-Information/Standard-Charge-Information/Inland-Hospital-CDM-3-4-19,200 Kennedy Memorial Dr,Waterville,ME,04901-4526,,"['200 Kennedy Memorial Dr', 'Waterville', 'ME']",44.5413464,-69.66250124582473
3,1376592311,WILLIAM BEAUMONT HOSPITAL,https://www.beaumont.org/patients-families/billing/pricing/2021-beaumont-health-price-transparency-information,3601 W 13 MILE RD,ROYAL OAK,MI,48073-6712,2021-01-16 00:00:00 +0000 UTC,"['3601 W 13 MILE RD', 'ROYAL OAK', 'MI']",42.5134264,-83.1916698
4,1376595777.0,Good Samaritan Hospital,https://goodsamsanjose.com/about/legal/pricing-transparency-cms-required-file-of-standard-charges.dot,2425 Samaritan Dr,San Jose,CA,95124.0,2021-01-01 00:00:00 +0000 UTC,"['2425 Samaritan Dr', 'San Jose', 'CA']",37.25229515,-121.94571392384154
5,1376597328.0,Eastside Medical Center,https://eastsidemedical.com/about/legal/pricing-transparency-cms-required-file-of-standard-charges.dot,1700 Medical Way,Snellville,GA,30078.0,2021-01-01 00:00:00 +0000 UTC,"['1700 Medical Way', 'Snellville', 'GA']",33.87739355,-84.02149045111923
6,1376644385,ST. ALEXIUS MEDICAL CENTER,https://healthcare.ascension.org/-/media/project/ascension/healthcare/price-transparency-files/il/364251846_st-alexius-medical-center-incl-womens-and-childrens-hospitals_standardcharges.xlsx,1555 BARRINGTON ROAD,HOFFMAN ESTATES,IL,60169,,"['1555 BARRINGTON ROAD', 'HOFFMAN ESTATES', 'IL']",42.0393925,-88.1444996
7,1376698043,Panorama City Medical Center,https://healthy.kaiserpermanente.org/content/dam/kporg/final/documents/health-plan-documents/coverage-information/941340523_PanoramaMedicalCenter_standardcharges.xlsx,13651 Willard St,Panorama City,CA,91402,2021-01-01 00:00:00 +0000 UTC,"['13651 Willard St', 'Panorama City', 'CA']",34.2197127,-118.4303012550379
8,1376816975,ASCENSION MEDICAL GROUP ST. VINCENT,https://healthcare.ascension.org/-/media/project/ascension/healthcare/price-transparency-files/in/351841606_ascension-st-vincent-jennings_standardcharges.xlsx,301 HENRY ST,NORTH VERNON,IN,47265-1030,,"['301 HENRY ST', 'NORTH VERNON', 'IN']",39.0103129,-85.64108477280786
9,1376829812,Encompass Health Rehabilitation Hospital The Vintage,https://encompasshealth.com/locations/thevintagerehab/transparency-healthcare,20180 CHASEWOOD PARK DRIVE,HOUSTON,TX,77070,,"['20180 CHASEWOOD PARK DRIVE', 'HOUSTON', 'TX']",29.9877111,-95.5721577
10,1376985135,Atrium Health Mercy,https://chsprodrsrcegrporg385.blob.core.windows.net/cms-price-transparency/56-1398929_AtriumHealthMercy_StandardCharges.json,2001 Vail Ave. ,Charlotte,NC,28207,,"['2001 Vail Ave. ', 'Charlotte', 'NC']",35.20963195,-80.82055883046371
11,1386009108,Kentfield San Francisco,https://kentfieldsanfrancisco.com/wp-content/uploads/sites/23/2021/02/030501846_Vibra-Hospital-of-San-Francisco_Standard-Charges.xlsx,"450 Stanyan St., 6th Floor", San Francisco,CA,94117,,"['450 Stanyan St., 6th Floor', ' San Francisco', 'CA']",NA,NA
12,1386192417,WILLIAM BEAUMONT HOSPITAL,https://www.beaumont.org/patients-families/billing/pricing/2021-beaumont-health-price-transparency-information,18181 OAKWOOD BLVD,DEARBORN,MI,48124-5032,2021-01-17 00:00:00 +0000 UTC,"['18181 OAKWOOD BLVD', 'DEARBORN', 'MI']",42.2932925,-83.2119635
13,1386652527,Cornerstone Regional Hospital,https://uhsfilecdn.eskycity.net/ac/cornerstone-regional-hospital_standard-charges.csv,2302 Cornerstone Boulevard,Edinburg,TX,78539,,"['2302 Cornerstone Boulevard', 'Edinburg', 'TX']",26.2627193,-98.19833934208879
14,1386681468.0,Lawnwood Medical Center & Heart Institute,https://lawnwoodmed.com/about/legal/pricing-transparency-cms-required-file-of-standard-charges.dot,1700 S 23rd St,Fort Pierce,FL,34950.0,2021-01-01 00:00:00 +0000 UTC,"['1700 S 23rd St', 'Fort Pierce', 'FL']",27.432239850000002,-80.34552439338844
15,1386693505,WILLIAM BEAUONT HOSPITAL,https://www.beaumont.org/patients-families/billing/pricing/2021-beaumont-health-price-transparency-information,3601 W 13 MILE RD,ROYAL OAK,MI,48073-6712,2021-01-16 00:00:00 +0000 UTC,"['3601 W 13 MILE RD', 'ROYAL OAK', 'MI']",42.5134264,-83.1916698
16,1386698918,Doctors Hospital of Augusta,https://doctors-hospital.net/about/legal/pricing-transparency-cms-required-file-of-standard-charges.dot,3651 Wheeler Rd,Augusta,GA,30909,2021-01-01 00:00:00 +0000 UTC,"['3651 Wheeler Rd', 'Augusta', 'GA']",33.4864304,-82.09452364191654
17,1386698918.0,Doctors Hospital of Augusta,https://doctors-hospital.net/about/legal/pricing-transparency-cms-required-file-of-standard-charges.dot,3651 Wheeler Rd,Augusta,GA,30909.0,2021-01-01 00:00:00 +0000 UTC,"['3651 Wheeler Rd', 'Augusta', 'GA']",33.4864304,-82.09452364191654
18,1386714814,Redwood City Medical Center,https://healthy.kaiserpermanente.org/content/dam/kporg/final/documents/health-plan-documents/coverage-information/941340523_RedwoodCityMedicalCenter_standardcharges.xlsx,1100 Veterans Blvd,Redwood City,CA,94063,2021-01-01 00:00:00 +0000 UTC,"['1100 Veterans Blvd', 'Redwood City', 'CA']",37.4892356,-122.224375
19,1386721041,Carondelet Holy Cross Hospital,https://www.carondelet.org/docs/global/standard-charges/474132507_carondeletholycrosshospital_standardcharges.json?sfvrsn=d3f0c922_4&download=true,1171 W. Target Range Road,Nogales,AZ,85621,,"['1171 W. Target Range Road', 'Nogales', 'AZ']",31.34004855,-110.95960971473919
20,1386786473,Ocala Health,https://ocalahealthsystem.com/about/legal/pricing-transparency-cms-required-file-of-standard-charges.dot,1431 SW 1st Ave,Ocala,FL,34471,2021-01-01 00:00:00 +0000 UTC,"['1431 SW 1st Ave', 'Ocala', 'FL']",29.174981600000002,-82.13607701728881
21,1396057071,VHS DETROIT RECEIVING HOSPITAL INC,https://www.dmc.org/patients/pricing-info-estimates/hospital-pricing-information,4201 SAINT ANTOINE ST,DETROIT,MI,482012153,2021-01-18 00:00:00 +0000 UTC,"['4201 SAINT ANTOINE ST', 'DETROIT', 'MI']",42.353434199999995,-83.05467013655965
22,1396087672,Emanuel Medical Center,https://www.emanuelmedicalcenter.org/docs/global/standard-charges/752918774_emanuelmedicalcenter_standardcharges.json?sfvrsn=73fd96d3_4&download=true,825 Delbon Avenue,Turlock,CA,95382,,"['825 Delbon Avenue', 'Turlock', 'CA']",37.51171915,-120.83807733516551
23,1396138970,Baylor Scott & White Medical Center - Marble Falls,https://www.bswhealth.com/SiteCollectionDocuments/patient-tools/estimate-cost-of-care/46-4007700_BAYLOR%20SCOTT%20&%20WHITE%20%20MEDICAL%20CENTER%20AT%20MARBLE%20FALLS_standardcharges.csv,810 W. State Highway 71,Marble Falls,TX,78654,,"['810 W. State Highway 71', 'Marble Falls', 'TX']",30.51299185,-98.30393937073691
24,1396223590,ADVENTIST HEALTH SYSTEM-SUNBELT INC,https://www.adventhealth.com/sites/default/files/CDM/2021/591479658_AdventHealthOrlando_standardcharges.xml,2100 OCOEE APOPKA RD,APOPKA,FL,32703-9210,,"['2100 OCOEE APOPKA RD', 'APOPKA', 'FL']",28.6495596,-81.5386693
25,1396731105,Doctors Hospital of Laredo,https://uhsfilecdn.eskycity.net/ac/doctors-hospital-of-laredo_standard-charges.csv,10700 McPherson Road,Laredo,TX,78045,,"['10700 McPherson Road', 'Laredo', 'TX']",27.606654849999998,-99.4779249736694
26,1396778197,Twin Cities Community Hospital,https://www.tenethealthcentralcoast.com/docs/global/standard-charges/752918765_twincitiescommunityhospital_standardcharges.json?sfvrsn=5d2e308c_4&download=true,1100 Las Tablas Rd.,Templeton,CA,93465,,"['1100 Las Tablas Rd.', 'Templeton', 'CA']",35.5551414,-120.72005853153519
27,1396787198,Research Medical Center,https://researchmedicalcenter.com/about/legal/pricing-transparency-cms-required-file-of-standard-charges.dot,2316 E Meyer Blvd,Kansas City,MO,64132,2021-01-01 00:00:00 +0000 UTC,"['2316 E Meyer Blvd', 'Kansas City', 'MO']",39.009935049999996,-94.55974787621142
28,1396790200.0,Swedish Medical Center,https://swedishhospital.com/about/legal/pricing-transparency-cms-required-file-of-standard-charges.dot,4900 S. Monaco St.,Denver,CO,80237.0,2021-01-01 00:00:00 +0000 UTC,"['4900 S. Monaco St.', 'Denver', 'CO']",39.6279879,-104.9110296
29,1396790325,Atrium Health Union,https://chsprodrsrcegrporg385.blob.core.windows.net/cms-price-transparency/56-0529945_AtriumHealthUnion_StandardCharges.json,600 Hospital Drive ,Monroe,NC,28112,,"['600 Hospital Drive ', 'Monroe', 'NC']",34.97545435,-80.52226811412388
30,1396794111,WILLIAM BEAUMONT HOSPITAL,https://www.beaumont.org/patients-families/billing/pricing/2021-beaumont-health-price-transparency-information,3601 W 13 MILE RD,ROYAL OAK,MI,48073-6712,2021-01-16 00:00:00 +0000 UTC,"['3601 W 13 MILE RD', 'ROYAL OAK', 'MI']",42.5134264,-83.1916698
31,1396799102,Carson Valley Medical Center,https://www.cvmchospital.org/documents/content/CVMC-Reimb-Price-Trans-File-123120-Readable.xlsx,1107 Hwy 395,Gardnerville,NV,89410,,"['1107 Hwy 395', 'Gardnerville', 'NV']",NA,NA
32,1396811295,PROVIDENCE HOSPITAL AND MEDICAL CENTERS,https://healthcare.ascension.org/-/media/project/ascension/healthcare/price-transparency-files/mi/381358212_ascension-providence-hospital-southfield-campus_standardcharges.xlsx,16001 W 9 MILE RD,SOUTHFIELD,MI,48075-4818,,"['16001 W 9 MILE RD', 'SOUTHFIELD', 'MI']",42.45657715,-83.20519346893326
33,1245631944,Encompass Health Rehabilitation Hospital of Middletown,https://encompasshealth.com/locations/middletownrehab/transparency-healthcare,250 E HAMPDEN RD,MIDDLETOWN,DE,197095303,,"['250 E HAMPDEN RD', 'MIDDLETOWN', 'DE']",39.4521401,-75.6805042
34,1245667229,UP Health System – Portage,http://www.portagehealth.org/Content/Uploads/UP Health System - Portage/files/900998484_Portage_Health_Standard_Charges_12312020.zip,500 Campus Drive,Hancock,MI,49930,,"['500 Campus Drive', 'Hancock', 'MI']",47.1397518,-88.5867454428902
35,1255317590,Memorial Medical Center,http://www.mmclc.org/Content/Uploads/Memorial/files/270085482_Memorial_Medical_Center_Las_Cruces_Standard_Charges_12192020.zip,2450 S. Telshor Boulevard,Las Cruces,NM,88011,,"['2450 S. Telshor Boulevard', 'Las Cruces', 'NM']",32.29108185,-106.73704022493928
36,1255337473,Grace Cottage Hospital,https://gracecottage.org/wp-content/uploads/2020/01/Grace-Cottage-Family-Health-Hospital-2020-Standard-Charges-for-Service....csv,185 Grafton Rd,Townshend,VT,5353,,"['185 Grafton Rd', 'Townshend', 'VT']",43.0494541,-72.6679811750772
37,1255378337.0,Menorah Medical Center,https://menorahmedicalcenter.com/about/legal/pricing-transparency-cms-required-file-of-standard-charges.dot,5721 W. 119th Street,Overland Park,KS,66209.0,2021-01-01 00:00:00 +0000 UTC,"['5721 W. 119th Street', 'Overland Park', 'KS']",38.91001905,-94.65159693054947
38,1255380077,WILLIAM BEAUMONT HOSPITAL,https://www.beaumont.org/patients-families/billing/pricing/2021-beaumont-health-price-transparency-information,3601 W 13 MILE RD,ROYAL OAK,MI,48073-6712,2021-01-16 00:00:00 +0000 UTC,"['3601 W 13 MILE RD', 'ROYAL OAK', 'MI']",42.5134264,-83.1916698
39,1255384533,Medical City Lewisville,https://core.secure.ehc.com/src/util/detail-price-list/62-1682210_medical-city-lewisville_standardcharges.csv,500 W Main St,Lewisville,TX,75057,2021-01-04 00:00:00 +0000 UTC,"['500 W Main St', 'Lewisville', 'TX']",33.0439834,-97.00443992528821
40,1255447181,AdventHealth Rollins Brook,https://www.adventhealth.com/sites/default/files/CDM/2021/742225672_AdventHealthRollinsBrook_standardcharges.xml,10987 Sheldon Rd Ste 100,Tampa,FL,33626,2021-01-01 00:00:00 +0000 UTC,"['10987 Sheldon Rd Ste 100', 'Tampa', 'FL']",NA,NA
41,1255452470,WILLIAM BEAUMONT HOSPITAL,https://www.beaumont.org/patients-families/billing/pricing/2021-beaumont-health-price-transparency-information,3601 W 13 MILE RD,ROYAL OAK,MI,48073-6712,2021-01-16 00:00:00 +0000 UTC,"['3601 W 13 MILE RD', 'ROYAL OAK', 'MI']",42.5134264,-83.1916698
42,1255455705,McDowell Hospital,https://missionhealth.org/kaGZs2YoXr/832048888_mcdowell-hospital_standardcharges.csv,,,,,2021-01-01 00:00:00 +0000 UTC,"[nan, nan, nan]",NA,NA
43,1255572228,"Florida Medical Center, a campus of North Shore",https://www.floridamedctr.com/docs/global/standard-charges/752671592_floridamedctr_standardcharges.json?sfvrsn=5d39ab9e_4&download=true,5000 West Oakland Park Blvd.,Fort Lauderdale,FL,33313,,"['5000 West Oakland Park Blvd.', 'Fort Lauderdale', 'FL']",NA,NA
44,1255640819,Abrazo Arizona Heart Hospital,https://www.abrazohealth.com/docs/global/standard-charges/621811285_abrazoarizonahearthospital_standardcharges.json?sfvrsn=6f4b6d10_4&download=true,1930 East Thomas Rd.,Phoenix,AZ,85016,,"['1930 East Thomas Rd.', 'Phoenix', 'AZ']",33.48036602140611,-112.04051169841783
45,1255724639.0,Medical City North Hills,https://medicalcitynorthhills.com/about/legal/pricing-transparency-cms-required-file-of-standard-charges.dot,4401 Booth Calloway Rd,North Richland Hills,TX,76180.0,2021-01-01 00:00:00 +0000 UTC,"['4401 Booth Calloway Rd', 'North Richland Hills', 'TX']",32.8275548,-97.21295946756663
46,1255775029,Atrium Health Behavioral Health,https://chsprodrsrcegrporg385.blob.core.windows.net/cms-price-transparency/56-1398929_AtriumHealthBehavioralHealth_StandardCharges.json,501 Billingsley Road ,Charlotte,NC,28211,,"['501 Billingsley Road ', 'Charlotte', 'NC']",35.190801,-80.803623
47,1255791885.0,HCA Houston Healthcare Northwest,https://hnmc.com/about/legal/pricing-transparency-cms-required-file-of-standard-charges.dot,710 Cypress Creek Parkway,Houston,TX,77090.0,2021-01-01 00:00:00 +0000 UTC,"['710 Cypress Creek Parkway', 'Houston', 'TX']",30.020676199999997,-95.44266919238791
48,1265407175,Atrium Health Anson,https://chsprodrsrcegrporg385.blob.core.windows.net/cms-price-transparency/56-0529945_AtriumHealthAnson_StandardCharges.json,2301 US Hwy 74 W. ,Wadesboro,NC,28170,,"['2301 US Hwy 74 W. ', 'Wadesboro', 'NC']",NA,NA
49,1265430177,Baylor Scott & White Medical Center - Waxahachie,https://www.bswhealth.com/SiteCollectionDocuments/patient-tools/estimate-cost-of-care/75-1844139_BAYLOR%20SCOTT%20&%20WHITE%20MEDICAL%20CENTER%20AT%20WAXAHACHIE_standardcharges.csv,2400 N Interstate 35E,Waxahachie,TX,75165,,"['2400 N Interstate 35E', 'Waxahachie', 'TX']",32.4273249,-96.85802214732198
50,1265454391,PRESENCE MERCY MEDICAL CENTER,https://healthcare.ascension.org/-/media/project/ascension/healthcare/price-transparency-files/il/364195126_presence-mercy-medical-center-aurora_standardcharges.xlsx,1325 N HIGHLAND AVE,AURORA,IL,60506-1449,,"['1325 N HIGHLAND AVE', 'AURORA', 'IL']",41.787037049999995,-88.32472868114931
51,1265464259,Sanford Health Hillsboro Clinic,https://www.sanfordhealth.org/-/media/org/files/patients-and-visitors/billing-insurance/price-estimates/sanford-hillsboro-2021.csv?la=en&hash=C4DD84E1960D837F020A98F445709AE340E0B9B0,315 E Caledonia Ave,Hillsboro,ND,58045-4701,,"['315 E Caledonia Ave', 'Hillsboro', 'ND']",47.40363142857142,-97.05636328571428
52,1265465439,ADVENTIST HINSDALE HOSPITAL,https://healthcare.ascension.org/-/media/project/ascension/healthcare/price-transparency-files/il/362276984_adventist-hinsdale-hospital_standardcharges.xlsx,120 N OAK ST,HINSDALE,IL,60521-3829,,"['120 N OAK ST', 'HINSDALE', 'IL']",41.805683,-87.92130925685609
53,1265483713,Person Memorial Hospital,http://www.personhospital.com/Content/Uploads/Person Hospital/files/452909143%20Person%20Memorial%20Standard%20Charges%2012152020.zip,615 Ridge Road,Roxboro,NC,27573,,"['615 Ridge Road', 'Roxboro', 'NC']",36.40848405,-78.98524838272327
54,1265489736,Spaulding Rehab Hospital Cape Cod,https://healthcare.partners.org/pricetransparency/043071419_Spaulding-Rehabilitation-Hospital-Cape-Cod_StandardCharges.zip,311 Service Rd,East Sandwich,MA,02537,,"['311 Service Rd', 'East Sandwich', 'MA']",41.734667,-70.468567
55,1265527337,BRIGHTON HOSPITAL,https://healthcare.ascension.org/-/media/project/ascension/healthcare/price-transparency-files/mi/381576680_ascension-brighton-center-for-recovery_standardcharges.xlsx,12851 GRAND RIVER RD,BRIGHTON,MI,48116-8596,,"['12851 GRAND RIVER RD', 'BRIGHTON', 'MI']",NA,NA
56,1265529887,ADVENTHEALTH DELAND,https://www.adventhealth.com/sites/default/files/CDM/2021/593256803_AdventHealthDeLand_standardcharges.xml,701 W. PLYMOUTH AVENUE,DELAND,FL,32720,2021-01-26 00:00:00 +0000 UTC,"['701 W. PLYMOUTH AVENUE', 'DELAND', 'FL']",29.044208349999998,-81.31761684532522
57,1265568638,Baylor Scott & White Medical Center - Round Rock,https://www.bswhealth.com/SiteCollectionDocuments/patient-tools/estimate-cost-of-care/20-3749695_BAYLOR%20SCOTT%20&%20WHITE%20%20MEDICAL%20CENTER%20AT%20ROUND%20ROCK_standardcharges.csv,300 University Blvd,Round Rock,TX,78665,,"['300 University Blvd', 'Round Rock', 'TX']",30.5625344,-97.6852182659996
58,1265577191,ALEXIAN BROTHERS MEDICAL CENTER,https://healthcare.ascension.org/-/media/project/ascension/healthcare/price-transparency-files/il/362596381_alexian-brothers-medical-center-includes-alexian-brothers-rehab-hospital_standardcharges.xlsx,800 BIESTERFIELD RD,ELK GROVE VILLAGE,IL,60007-3311,,"['800 BIESTERFIELD RD', 'ELK GROVE VILLAGE', 'IL']",42.00500715,-88.0160185526135
59,1265590442,California Pacific Medical Center - Davies Campus,https://www.sutterhealth.org/pdf/chargemaster/chargemaster-cpmc-davies.csv,45 Castro St,San Francisco,CA,94114,2021-02-17 00:00:00 +0000 UTC,"['45 Castro St', 'San Francisco', 'CA']",37.76857,-122.43564175
60,1265609705,Midmichigan Medical Center Gladwin,https://www.midmichigan.org/app/files/public/34966/386020434_midmichigan-medical-center-gladwin_standardcharges.csv,,,,,2021-01-01 00:00:00 +0000 UTC,"[nan, nan, nan]",NA,NA
61,1265623094,Grant Memorial Hospital,https://www.grantmemorial.com/images/ClinicsStandardCharges.xlsx,117 Hospital Dr,Petersburg,WV,26847-9566,,"['117 Hospital Dr', 'Petersburg', 'WV']",39.001229800000004,-79.13714453664963
62,1265635767,SINAI GRACE HOSPITAL,https://www.dmc.org/patients/pricing-info-estimates/hospital-pricing-information,6071 W OUTER DR,DETROIT,MI,482352624,2021-01-18 00:00:00 +0000 UTC,"['6071 W OUTER DR', 'DETROIT', 'MI']",42.41907925,-83.18238206795442
63,1265671358,Corona Regional Medical Center,https://uhsfilecdn.eskycity.net/ac/corona-regional-medical-center_standard-charges.csv,800 S. Main Street,Corona,CA,92882,,"['800 S. Main Street', 'Corona', 'CA']",33.873390150000006,-117.56923537148273
64,1265740195,Aurora Medical Center Grafton,https://www.aurorahealthcare.org/-/media/aurorahealthcareorg/documents/billing-insurance/pricing-transparency/grafton-pt1-publication-20210101.xlsx?la=en&hash=F58225892BC0BE244D6247A97743636D86F506DD,975 Port Washington Road,Grafton,WI,53024,,"['975 Port Washington Road', 'Grafton', 'WI']",43.32587975,-87.92785280033061
65,1265772362,Baylor Scott & White Medical Center - College Station,https://www.bswhealth.com/SiteCollectionDocuments/patient-tools/estimate-cost-of-care/27-4434451_BAYLOR%20SCOTT%20&%20WHITE%20%20MEDICAL%20CENTER%20AT%20COLLEGE%20STATION_standardcharges.csv,700 Scott and White Dr,College Station,TX,77845,,"['700 Scott and White Dr', 'College Station', 'TX']",NA,NA
66,1265791149,Trinitas Regional Medical Center,https://trinitasrmc.org/misc/223601678_TRINITAS-REGIONAL-MEDICAL-CENTER_standardcharges.csv,225 Williamson St,Elizabeth,NJ,07202,2020-12-23 00:00:00 +0000 UTC,"['225 Williamson St', 'Elizabeth', 'NJ']",40.65973183673469,-74.21448687755102
67,1265862049.0,Research Psychiatric Center,https://researchpsychiatriccenter.com/about/legal/pricing-transparency-cms-required-file-of-standard-charges.dot,2323 East 63rd Street,Kansas City,MO,64130.0,2021-01-01 00:00:00 +0000 UTC,"['2323 East 63rd Street', 'Kansas City', 'MO']",39.012570777777775,-94.55996891111111
68,1265936884,Medical City Healthcare,https://medicalcityhealthcare.com/about/legal/pricing-transparency-cms-required-file-of-standard-charges.dot,13155 Noel Rd. Suite 200,Dallas,TX,75240,2021-01-01 00:00:00 +0000 UTC,"['13155 Noel Rd. Suite 200', 'Dallas', 'TX']",NA,NA
69,1275035271,BEAUMONT HEALTH,https://www.beaumont.org/patients-families/billing/pricing/2021-beaumont-health-price-transparency-information,3601 W 13 MILE RD,ROYAL OAK,MI,48073-6712,2021-01-16 00:00:00 +0000 UTC,"['3601 W 13 MILE RD', 'ROYAL OAK', 'MI']",42.5134264,-83.1916698
70,1275506982,Encompass Health Rehabilitation Hospital of Sarasota,https://encompasshealth.com/locations/sarasotarehab/transparency-healthcare,6400 EDGELAKE DR,SARASOTA,FL,342408813,,"['6400 EDGELAKE DR', 'SARASOTA', 'FL']",27.301079350000002,-82.44263829118822
71,1275511651,AdventHealth Wauchula,https://www.adventhealth.com/sites/default/files/CDM/2021/590725553_AdventHealthWauchula_standardcharges.xml,735 S 5TH AVE,WAUCHULA,FL,33873-3158,,"['735 S 5TH AVE', 'WAUCHULA', 'FL']",27.5394499,-81.8073391
72,1275520017,Transylvania Regional Hospital,https://missionhealth.org/kaGZs2YoXr/832048854_transylvania-regional-hospital_standardcharges.csv,,,,,2021-01-01 00:00:00 +0000 UTC,"[nan, nan, nan]",NA,NA
73,1275562027,Avera Gregory Hospital,https://www.avera.org/app/files/public/74006/gregory-healthcare-center-pricing.xls,400 Park Ave,Gregory,SD,57533-1302,,"['400 Park Ave', 'Gregory', 'SD']",43.23016935,-99.43606362497376
74,1275570350.0,Central Florida Regional Hospital,https://centralfloridaregional.com/about/legal/pricing-transparency-cms-required-file-of-standard-charges.dot,1401 West Seminole Blvd,Sanford,FL,,2021-01-01 00:00:00 +0000 UTC,"['1401 West Seminole Blvd', 'Sanford', 'FL']",28.815170950000002,-81.28371525606829
75,1275578064,AURORA MEDICAL CENTER OF OSHKOSH,https://www.aurorahealthcare.org/-/media/aurorahealthcareorg/documents/billing-insurance/pricing-transparency/oshkosh-pt1-publication-20210101.xlsx?la=en&hash=7EE8E751B4F8E6655C6C20884751D416725DBD7F,855 N WESTHAVEN DR,OSHKOSH,WI,54904-7668,,"['855 N WESTHAVEN DR', 'OSHKOSH', 'WI']",44.02755895,-88.59556427523286
76,1023065794.0,Woman's Hospital of Texas,https://womanshospital.com/about/legal/pricing-transparency-cms-required-file-of-standard-charges.dot,7600 Fannin,Houston,TX,77054.0,2021-01-01 00:00:00 +0000 UTC,"['7600 Fannin', 'Houston', 'TX']",29.693377499999997,-95.40279261588742
77,1023067840,WILLIAM BEAUMONT HOSPITAL,https://www.beaumont.org/patients-families/billing/pricing/2021-beaumont-health-price-transparency-information,3601 W 13 MILE RD,ROYAL OAK,MI,48073-6712,2021-01-16 00:00:00 +0000 UTC,"['3601 W 13 MILE RD', 'ROYAL OAK', 'MI']",42.5134264,-83.1916698
78,1023069739.0,Medical City Lewisville,https://medicalcitylewisville.com/about/legal/pricing-transparency-cms-required-file-of-standard-charges.dot,13155 Noel Rd. Suite 200,Dallas,TX,75240.0,2021-01-01 00:00:00 +0000 UTC,"['13155 Noel Rd. Suite 200', 'Dallas', 'TX']",NA,NA
79,1023097771,Midmichigan Medical Center Gratiot,https://www.midmichigan.org/app/files/public/34963/381437919_midmichigan-medical-center-gratiot_standardcharges.csv,,,,,2021-01-01 00:00:00 +0000 UTC,"[nan, nan, nan]",NA,NA
80,1023134657,WILLIAM BEAUMONT HOSPITAL,https://www.beaumont.org/patients-families/billing/pricing/2021-beaumont-health-price-transparency-information,3601 W 13 MILE RD,ROYAL OAK,MI,48073-6712,2021-01-16 00:00:00 +0000 UTC,"['3601 W 13 MILE RD', 'ROYAL OAK', 'MI']",42.5134264,-83.1916698
81,1023180502,Medical City Dallas,https://core.secure.ehc.com/src/util/detail-price-list/62-1682198_medical-city-dallas_standardcharges.csv,7777 Forest Ln,Dallas,TX,75230,2021-01-04 00:00:00 +0000 UTC,"['7777 Forest Ln', 'Dallas', 'TX']",32.91214135,-96.77385308766483
82,1023180502.0,Medical City Dallas,https://medicalcityhospital.com/about/legal/pricing-transparency-cms-required-file-of-standard-charges.dot,13155 Noel Rd. Suite 200,Dallas,TX,75240.0,2021-01-01 00:00:00 +0000 UTC,"['13155 Noel Rd. Suite 200', 'Dallas', 'TX']",NA,NA
83,1023240520,Spaulding Hospital Cambridge,https://healthcare.partners.org/pricetransparency/270273715_Spaulding-Hospital-Continuing-Medical-Care-Cambridge_StandardCharges.zip,1575 Cambridge St,Cambridge,MA,02138,,"['1575 Cambridge St', 'Cambridge', 'MA']",42.375209549999994,-71.10711344152975
84,1023301199.0,JFK Medical Center,https://jfkmc.com/about/legal/pricing-transparency-cms-required-file-of-standard-charges.dot,5301 S Congress Ave,Atlantis,FL,33462.0,2021-01-01 00:00:00 +0000 UTC,"['5301 S Congress Ave', 'Atlantis', 'FL']",26.59785745,-80.09193191623936
85,1023325800,Rhode Island Hospital,https://www.lifespan.org/sites/default/files/2020-12/Chargemaster-RIH-Hasbro.xlsx,17 Seekonk St,Providence,RI,02906-5125,,"['17 Seekonk St', 'Providence', 'RI']",41.82776137205279,-71.38801085879236
86,1023327509,VHS SINAI GRACE HOSPITAL,https://www.dmc.org/patients/pricing-info-estimates/hospital-pricing-information,6071 W OUTER DR,DETROIT,MI,482352624,2021-01-18 00:00:00 +0000 UTC,"['6071 W OUTER DR', 'DETROIT', 'MI']",42.41907925,-83.18238206795442
87,1023334950,ASCENSION VIA CHRISTI HOSPITAL ST TERESA INC.,https://healthcare.ascension.org/-/media/project/ascension/healthcare/price-transparency-files/ks/271965272_ascension-via-christi-st-teresa_standardcharges.xlsx,14800 W SAINT TERESA ST,WICHITA,KS,67235-9602,,"['14800 W SAINT TERESA ST', 'WICHITA', 'KS']",37.7257507,-97.513141135653
88,1023387479,Plantation General Hospital,https://plantationgeneral.com/about/legal/pricing-transparency-cms-required-file-of-standard-charges.dot,401 NW 42 Ave,Miami,FL,33317,2021-01-01 00:00:00 +0000 UTC,"['401 NW 42 Ave', 'Miami', 'FL']",NA,NA
89,1023435898,Rutherford Regional Health System,http://www.myrutherfordregional.com/Content/Uploads/Rutherford Hospital Redesign/files/300811171_Rutherford_Regional_Medical_Center_Standard_Charges_12202020.zip,288 S. Ridgecrest Avenue,Rutherfordton,NC,28139,,"['288 S. Ridgecrest Avenue', 'Rutherfordton', 'NC']",NA,NA
90,1033112230,St. Jude Children's Research Hospital,https://www.stjude.org/content/dam/en_US/shared/www/about-st-jude/legal/no-index/620646012-st-jude-childrens-research-hospital-standardcharges.xlsx,,Memphis,TN,38105,,"[nan, 'Memphis', 'TN']",NA,NA
91,1033115993,IU Health Jay Hospital,https://cdn.iuhealth.org/resources/82-2736786_IU-Health-Jay-Hospital_standardcharges.txt?mtime=20210202164658&focal=none,500 West Votaw St,Portland,IN,47371,,"['500 West Votaw St', 'Portland', 'IN']",40.4407165,-84.9845068510765
92,1033118104,Wentworth-Douglass Hospital,https://healthcare.partners.org/pricetransparency/020260334_Wentworth-Douglass-Hospital_StandardCharges.zip,789 Central Avenue,Dover,NH,03820,,"['789 Central Avenue', 'Dover', 'NH']",43.21252405,-70.87294202655315
93,1033120423,Texas Health Huguley,https://www.adventhealth.com/sites/default/files/CDM/2021/452694620_Texas%20Health%20Huguley%20Hospital%20Fort%20Worth%20South_standardcharges.xml,11801 SOUTH FWY,BURLESON,TX,76028-7021,,"['11801 SOUTH FWY', 'BURLESON', 'TX']",32.58615905,-97.31661787206193
94,1033123666,Abbott Northwestern Hospital,https://www.allinahealth.org/-/media/allina-health/files/customer-service/billing-and-insurance/363261413-abbott-standardcharges.xlsx?la=en&hash=1E0BA34DE78DFB613E05CC1A50306BF7,,Minneapolis,MN,,,"[nan, 'Minneapolis', 'MN']",NA,NA
95,1033156161.0,The Medical Center of Aurora,https://auroramed.com/about/legal/pricing-transparency-cms-required-file-of-standard-charges.dot,4900 S. Monaco St.,Denver,CO,80237.0,2021-01-01 00:00:00 +0000 UTC,"['4900 S. Monaco St.', 'Denver', 'CO']",39.6279879,-104.9110296
96,1033163019.0,Los Robles Regional Medical Center,https://losrobleshospital.com/about/legal/pricing-transparency-cms-required-file-of-standard-charges.dot,215 West Janss Rd,Thousand Oaks,CA,91360.0,2021-01-01 00:00:00 +0000 UTC,"['215 West Janss Rd', 'Thousand Oaks', 'CA']",34.206534838188354,-118.88260661109992
97,1033164926.0,Fort Walton Beach Medical Center,https://fwbmc.com/about/legal/pricing-transparency-cms-required-file-of-standard-charges.dot,1000 Mar Walt Dr,Ft Walton Beach,FL,32547.0,2021-01-01 00:00:00 +0000 UTC,"['1000 Mar Walt Dr', 'Ft Walton Beach', 'FL']",30.4542206,-86.63361444892132
98,1033168331,WILLIAM BEAUMONT HOSPITAL,https://www.beaumont.org/patients-families/billing/pricing/2021-beaumont-health-price-transparency-information,3601 W 13 MILE RD,ROYAL OAK,MI,48073-6712,2021-01-16 00:00:00 +0000 UTC,"['3601 W 13 MILE RD', 'ROYAL OAK', 'MI']",42.5134264,-83.1916698
99,1033211180,ADVENTIST HEALTH SYSTEM-SUNBELT INC,https://www.adventhealth.com/sites/default/files/CDM/2021/590725553_AdventHealthLake Placid_standardcharges.xml,1210 US 27 N,LAKE PLACID,FL,33852,2021-01-26 00:00:00 +0000 UTC,"['1210 US 27 N', 'LAKE PLACID', 'FL']",NA,NA
100,1033226022,Freeman Regional Health Services,https://www.avera.org/app/files/public/79149/freeman-regional-hospital-pricing.xlsx,510 East 8th St,Freeman,SD,57029,,"['510 East 8th St', 'Freeman', 'SD']",43.34766285,-97.4310777
101,1033228168,St. Francis Hospital,https://www.mystfrancis.com/Content/Uploads/St. Francis Hospital Redesign/files/47-5259919_ST._FRANCIS_HOSPITAL_StandardCharges.zip,2122 Manchester Expressway,Columbus,GA,31904,,"['2122 Manchester Expressway', 'Columbus', 'GA']",32.5208763,-84.8990862
102,1033596416.0,Chippenham Hospital,https://chippenhammed.com/about/legal/pricing-transparency-cms-required-file-of-standard-charges.dot,901 E. Cary St Suite 210,Richmond,VA,,2021-01-01 00:00:00 +0000 UTC,"['901 E. Cary St Suite 210', 'Richmond', 'VA']",NA,NA
103,1033770284,AdventHealth Lake Wales,https://www.adventhealth.com/sites/default/files/CDM/2021/834672945_AdventHealthLake Wales_standardcharges.xml,10987 Sheldon Rd Ste 100,Tampa,FL,33626,2021-01-01 00:00:00 +0000 UTC,"['10987 Sheldon Rd Ste 100', 'Tampa', 'FL']",NA,NA
104,1043215437,Shoshone Medical Center,http://www.shoshonehealth.com/wp-content/uploads/2019/12/2020-Charge-Master.csv,25 Jacobs Gulch Rd,Kellogg,ID,83837-2023,,"['25 Jacobs Gulch Rd', 'Kellogg', 'ID']",47.5471584,-116.13051638300956
105,1043220205,BEAUMONT SPECIAL RADIOLOGICAL PROCEDURES,https://www.beaumont.org/patients-families/billing/pricing/2021-beaumont-health-price-transparency-information,3601 W THIRTEEN MILE RD,ROYAL OAK,MI,48073,2021-01-16 00:00:00 +0000 UTC,"['3601 W THIRTEEN MILE RD', 'ROYAL OAK', 'MI']",NA,NA
106,1043253388.0,Brandon Regional Hospital,https://brandonhospital.com/about/legal/pricing-transparency-cms-required-file-of-standard-charges.dot,119 Oakfield Dr,Brandon,FL,33511.0,2021-01-01 00:00:00 +0000 UTC,"['119 Oakfield Dr', 'Brandon', 'FL']",27.933692,-82.2878701
107,1043257918.0,Portsmouth Regional Hospital,https://portsmouthhospital.com/about/legal/pricing-transparency-cms-required-file-of-standard-charges.dot,333 Borthwick Ave,Portsmouth,NH,3801.0,2021-01-01 00:00:00 +0000 UTC,"['333 Borthwick Ave', 'Portsmouth', 'NH']",43.06481785,-70.78932128426669
108,1043264021.0,Eastern Idaho Regional Medical Center,https://eirmc.com/about/legal/pricing-transparency-cms-required-file-of-standard-charges.dot,3100 Channing Way,Idaho Falls,ID,83404.0,2021-01-01 00:00:00 +0000 UTC,"['3100 Channing Way', 'Idaho Falls', 'ID']",43.4702675,-111.99209549105757
109,1043267701.0,Valley Regional Medical Center,https://valleyregionalmedicalcenter.com/about/legal/pricing-transparency-cms-required-file-of-standard-charges.dot,100-A Alton Gloor Blvd,Brownsville,TX,78526.0,2021-01-01 00:00:00 +0000 UTC,"['100-A Alton Gloor Blvd', 'Brownsville', 'TX']",25.966115,-97.539069
110,1366871600,Encompass Health Rehabilitation Hospital of Humble,https://www.encompasshealth.com/locations/humblerehab/transparency-healthcare,19002 MCKAY DR,HUMBLE,TX,77338,,"['19002 MCKAY DR', 'HUMBLE', 'TX']",29.9934261,-95.27753394394838
111,1366886186,Essentia Health-Ada,https://www.essentiahealth.org/app/files/public/3619/ada-hospital-service-charges.csv,201 9th St W,Ada,MN,56510,,"['201 9th St W', 'Ada', 'MN']",NA,NA
112,1366896300,Memorial Hospital Los Banos,https://www.sutterhealth.org/pdf/chargemaster/chargemaster-mhlb.csv,520 W I St,Los Banos,CA,93635,2021-02-17 00:00:00 +0000 UTC,"['520 W I St', 'Los Banos', 'CA']",37.064121,-120.8591580347306
113,1366898165,Orange Park Medical Center,https://orangeparkmedical.com/about/legal/pricing-transparency-cms-required-file-of-standard-charges.dot,2001 Kingsley Avenue,Orange Park,FL,32073,2021-01-01 00:00:00 +0000 UTC,"['2001 Kingsley Avenue', 'Orange Park', 'FL']",30.16595815,-81.73737692501658
114,1366898165.0,Orange Park Medical Center,https://orangeparkmedical.com/about/legal/pricing-transparency-cms-required-file-of-standard-charges.dot,2001 Kingsley Avenue,Orange Park,FL,32073.0,2021-01-01 00:00:00 +0000 UTC,"['2001 Kingsley Avenue', 'Orange Park', 'FL']",30.16595815,-81.73737692501658
115,1376081455,BEAUMONT - FARMINGTON HILLS,https://www.beaumont.org/patients-families/billing/pricing/2021-beaumont-health-price-transparency-information,28050 GRAND RIVER AVE,FARMINGTON HILLS,MI,48336-5919,2021-01-17 00:00:00 +0000 UTC,"['28050 GRAND RIVER AVE', 'FARMINGTON HILLS', 'MI']",42.44512185000001,-83.32459688432317
116,1376517508,Encompass Health Valley of The Sun Rehabilitation Hospital,https://encompasshealth.com/locations/valleyofthesunrehab/transparency-healthcare,13460 N 67TH AVE,GLENDALE,AZ,85304,,"['13460 N 67TH AVE', 'GLENDALE', 'AZ']",33.60809506151924,-112.20272550178399
117,1376541748,ASCENSION CALUMET HOSPITAL,https://healthcare.ascension.org/-/media/project/ascension/healthcare/price-transparency-files/wi/390905385_ascension-calumet-hospital_standardcharges.xlsx,614 MEMORIAL DR,CHILTON,WI,53014-1568,,"['614 MEMORIAL DR', 'CHILTON', 'WI']",44.0248888,-88.15328844745025
118,1376558189,AdventHealth Apopka,https://www.adventhealth.com/sites/default/files/CDM/2021/591479658_AdventHealthOrlando_standardcharges.xml,10987 Sheldon Rd Ste 100,Tampa,FL,33626,2021-01-01 00:00:00 +0000 UTC,"['10987 Sheldon Rd Ste 100', 'Tampa', 'FL']",NA,NA
119,1376564088,McLaren Oakland,https://www.mclaren.org/Uploads/Public/Documents/corporate/ChargeMasterFile/2021/38-1428164_McLarenOakland_standardcharges.csv,50 N Perry St,Pontiac,MI,48342,2021-01-01 00:00:00 +0000 UTC,"['50 N Perry St', 'Pontiac', 'MI']",42.638462200000006,-83.29149099457695
120,1518164037,Charleston Area Medical Center,https://www.camc.org/sites/default/files/Copy%20of%20Copy%20of%20550526150_CAMC_standardcharges%20011521.xlsx,3110 Maccorkle Avenue Se,Charleston,WV,25304,,"['3110 Maccorkle Avenue Se', 'Charleston', 'WV']",38.328595525044754,-81.60443303308448
121,1518287721,Encompass Health Rehabilitation Hospital of Sugar Land,https://www.encompasshealth.com/locations/sugarlandrehab/transparency-healthcare,1325 HIGHWAY 6,SUGAR LAND,TX,77478,,"['1325 HIGHWAY 6', 'SUGAR LAND', 'TX']",NA,NA
122,1518294958,WILLIAM BEAUMONT HOSPITAL,https://www.beaumont.org/patients-families/billing/pricing/2021-beaumont-health-price-transparency-information,44201 DEQUINDRE RD,TROY,MI,48085-1117,2021-01-17 00:00:00 +0000 UTC,"['44201 DEQUINDRE RD', 'TROY', 'MI']",42.620904162934885,-83.09141882905487
123,1518355759,Texas Health Huguley Hospital,https://www.adventhealth.com/sites/default/files/CDM/2021/452694620_Texas Health Huguley Hospital Fort Worth South_standardcharges.xml,10987 Sheldon Rd Ste 100,Tampa,FL,33626,2021-01-01 00:00:00 +0000 UTC,"['10987 Sheldon Rd Ste 100', 'Tampa', 'FL']",NA,NA
124,1518906510,The Woman’s Hospital of Texas,https://womanshospital.com/about/legal/pricing-transparency-cms-required-file-of-standard-charges.dot,7600 Fannin,Houston,TX,77054,2021-01-01 00:00:00 +0000 UTC,"['7600 Fannin', 'Houston', 'TX']",29.693377499999997,-95.40279261588742
125,1518911031.0,St. Petersburg General Hospital,https://stpetegeneral.com/about/legal/pricing-transparency-cms-required-file-of-standard-charges.dot,6500 38th Ave N,St. Petersburg,FL,33710.0,2021-01-01 00:00:00 +0000 UTC,"['6500 38th Ave N', 'St. Petersburg', 'FL']",27.8052244,-82.72641043233625
126,1518911833,Medical City North Hills,https://core.secure.ehc.com/src/util/detail-price-list/62-1682205_medical-city-north-hills_standardcharges.csv,4401 Booth Calloway Rd,North Richland Hills,TX,76180,2021-01-04 00:00:00 +0000 UTC,"['4401 Booth Calloway Rd', 'North Richland Hills', 'TX']",32.8275548,-97.21295946756663
127,1518916345,WILLIAM BEAUMONT HOSPITAL,https://www.beaumont.org/patients-families/billing/pricing/2021-beaumont-health-price-transparency-information,3601 W 13 MILE RD,ROYAL OAK,MI,48073-6712,2021-01-16 00:00:00 +0000 UTC,"['3601 W 13 MILE RD', 'ROYAL OAK', 'MI']",42.5134264,-83.1916698
128,1518924752,Laird Hospital,https://www.rushhealthsystems.org/sites/rhs/assets/File/Patients%20and%20Visitors/Pricing%20Transparency/Laird-Hospital.csv,25117 Highway 15,Union,MS,39365-9088,,"['25117 Highway 15', 'Union', 'MS']",NA,NA
129,1518930213,Encompass Health Rehabilitation Hospital of Morgantown,https://encompasshealth.com/locations/morgantownrehab/transparency-healthcare,1160 VAN VOORHIS RD,MORGANTOWN,WV,265053437,,"['1160 VAN VOORHIS RD', 'MORGANTOWN', 'WV']",39.6565349,-79.96234261690554
130,1518991744,McLaren Thumb Region,https://www.mclaren.org/Uploads/Public/Documents/corporate/ChargeMasterFile/2021/38-1474929_%20McLarenThumbRegion_standardcharges.csv,1100 S Van Dyke Rd,Bad Axe,MI,48413,2021-01-01 00:00:00 +0000 UTC,"['1100 S Van Dyke Rd', 'Bad Axe', 'MI']",43.80332009999999,-83.03159166847732
131,1528009412,Sanford Medical Center Fargo,https://www.sanfordhealth.org/-/media/org/files/patients-and-visitors/billing-insurance/price-estimates/sanford-medical-center-fargo.csv?la=en&hash=9EBFCAF1E62D77C9921382E7AB10B1A45F01E86B,801 Broadway N,Fargo,ND,58122-4520,,"['801 Broadway N', 'Fargo', 'ND']",46.88449025,-96.78624195106761
132,1528017340,WILLIAM BEAUMONT HOSPITAL,https://www.beaumont.org/patients-families/billing/pricing/2021-beaumont-health-price-transparency-information,3601 W 13 MILE RD,ROYAL OAK,MI,48073-6712,2021-01-16 00:00:00 +0000 UTC,"['3601 W 13 MILE RD', 'ROYAL OAK', 'MI']",42.5134264,-83.1916698
133,1528022118,SINAI HOSPITAL OF GREATER DETROIT,https://www.dmc.org/patients/pricing-info-estimates/hospital-pricing-information,6071 W OUTER DR,DETROIT,MI,482352624,2021-01-18 00:00:00 +0000 UTC,"['6071 W OUTER DR', 'DETROIT', 'MI']",42.41907925,-83.18238206795442
134,1528025632,Owatonna Hospital,https://www.allinahealth.org/-/media/allina-health/files/customer-service/billing-and-insurance/363261413-owatonna-standardcharges.xlsx?la=en&hash=88214B22AA7BF401129431307C5E6C99,,Owatonna,MN,,,"[nan, 'Owatonna', 'MN']",NA,NA
135,1528031226,McLaren Bay Region,https://www.mclaren.org/Uploads/Public/Documents/corporate/ChargeMasterFile/2021/38-1976271_McLarenBayRegion_standardcharges.csv,1900 Columbus Ave,Bay City,MI,48708,2021-01-01 00:00:00 +0000 UTC,"['1900 Columbus Ave', 'Bay City', 'MI']",43.587469299999995,-83.86838489229855
136,1528093960,Wellstar Atlanta Medical Center,https://www.wellstar.org/about-us/policies-procedures/documents/chargemasters/wsprocedures.txt,"303 Parkway Dr Ne, Atlanta, Georgia",Atlanta,GA,30312-1212,,"['303 Parkway Dr Ne, Atlanta, Georgia', 'Atlanta', 'GA']",33.762858449999996,-84.37309675572769
137,1528138088,South Sacramento Medical Center,https://healthy.kaiserpermanente.org/content/dam/kporg/final/documents/health-plan-documents/coverage-information/941340523_SouthSacramentoMedicalCenter_standardcharges.xlsx,6600 Bruceville Rd,Sacramento,CA,95823,2021-01-01 00:00:00 +0000 UTC,"['6600 Bruceville Rd', 'Sacramento', 'CA']",38.4694359,-121.423679
138,1528152790,Sanford Canby Medical Center,https://www.sanfordhealth.org/-/media/org/files/patients-and-visitors/billing-insurance/price-estimates/sanford-canby-2021.csv?la=en&hash=BC0477AC92E5D5382CCF7F713CED153265D3DDCF,112 Saint Olaf Ave S,Canby,MN,56220-1433,,"['112 Saint Olaf Ave S', 'Canby', 'MN']",44.7082673,-96.27872675279838
139,1528203049,Vibra Hospital of Mahoning Valley,https://vhmvalley.com/wp-content/uploads/sites/29/2021/02/273309582_Vibra-Hospital-of-Mahoning-Valley_Standard-Charges.xlsx,8049 South Ave., Boardman,OH,44512,,"['8049 South Ave.', ' Boardman', 'OH']",41.005358343611164,-80.63390217654576
140,1528261419,HURON VALLEY HOSPITAL INC,https://www.dmc.org/patients/pricing-info-estimates/hospital-pricing-information,1 WILLIAM CARLS DR,COMMERCE TOWNSHIP,MI,483822201,2021-01-18 00:00:00 +0000 UTC,"['1 WILLIAM CARLS DR', 'COMMERCE TOWNSHIP', 'MI']",42.59258185,-83.49828343007397
141,1528519766,Bradley Hospital,https://www.bradleyhospital.org/sites/default/files/lifespan-files/documents/lifespan-main/charges/Chargemaster-Bradley.xlsx,1011 Veterans Memorial Pkwy,Riverside,RI,02915-5061,,"['1011 Veterans Memorial Pkwy', 'Riverside', 'RI']",NA,NA
142,1538112230,ASCENSION ST MICHAEL'S HOSPITAL,https://healthcare.ascension.org/-/media/project/ascension/healthcare/price-transparency-files/wi/390808443_ascension-st-michaels-hospital_standardcharges.xlsx,900 ILLINOIS AVE,STEVENS POINT,WI,54481-3114,,"['900 ILLINOIS AVE', 'STEVENS POINT', 'WI']",44.52691005,-89.56706987549776
143,1538123567,Buffalo Hospital,https://www.allinahealth.org/-/media/allina-health/files/customer-service/billing-and-insurance/363261413-buffalo-standardcharges.xlsx?la=en&hash=B4B1286DB4AD24F5AD6FB4E24666FFA8,,Buffalo,MN,,,"[nan, 'Buffalo', 'MN']",NA,NA
144,1538131214,Saint Vincent Hospital,https://www.stvincenthospital.com/docs/global/standard-charges/621861198_saintvincenthospital_standardcharges.json?sfvrsn=e0eef486_4&download=true,123 Summer St.,Worcester,MA,1608,,"['123 Summer St.', 'Worcester', 'MA']",42.26496835,-71.79655403681465
145,1538132253,Encompass Health Rehabilitation Hospital of Northern Kentucky,https://encompasshealth.com/locations/kentuckyrehab/transparency-healthcare,201 MEDICAL VILLAGE DR,EDGEWOOD,KY,410173407,,"['201 MEDICAL VILLAGE DR', 'EDGEWOOD', 'KY']",39.0124756,-84.56669980085661
146,1538174354,AdventHealth Zephyrhills,https://www.adventhealth.com/sites/default/files/CDM/2021/592108057_AdventHealthZephyrhills_standardcharges.xml,10987 Sheldon Rd Ste 100,Tampa,FL,33626,2021-01-01 00:00:00 +0000 UTC,"['10987 Sheldon Rd Ste 100', 'Tampa', 'FL']",NA,NA
147,1538185475,McLean Hospital,https://healthcare.partners.org/pricetransparency/042697981_McLean-Hospital_StandardCharges.zip,115 Mill St,Belmont,MA,02478,,"['115 Mill St', 'Belmont', 'MA']",42.393267949999995,-71.19024470958927
148,1538324009,Vcu Health System,https://www.vcuhealth.org/-/media/media/file/20210112_vcuhmc_pricetransparency.ashx,1250 E Marshall St,Richmond,VA,23298-5051,,"['1250 E Marshall St', 'Richmond', 'VA']",37.540257499999996,-77.43006310233004
149,1538325303,Norwalk Hospital,https://www.norwalkhospital.org/-/media/wchn/shared/files/billing/wchn-federal-chargemaster-docs/nh-chargemaster.xlsx?la=en&hash=A44BA054710C32684C4109E93564ED5C1097CAD3,40 Prospect Ave,Norwalk,CT,06850-3737,,"['40 Prospect Ave', 'Norwalk', 'CT']",41.1136011,-73.4224902
150,1538440904,Encompass Health Rehabilitation Hospital of Cincinnati,https://www.encompasshealth.com/locations/cincinnatirehab/transparency-healthcare,151 W GALBRAITH RD,CINCINNATI,OH,452161015,,"['151 W GALBRAITH RD', 'CINCINNATI', 'OH']",39.213768620689656,-84.48154881034483
151,1538449830,Summa Rehab Hospital,https://summarehabhospital.com/wp-content/uploads/sites/18/2021/02/271952573_Summa-Rehabilitation-Hospital_Standard-Charges.xlsx,29 N. Adams St., Akron,OH,44304,,"['29 N. Adams St.', ' Akron', 'OH']",41.078602270640694,-81.49842600378967
152,1538471800,DMC Children's Hospital of Michigan,https://www.childrensdmc.org/docs/global/standard-charges/272845064_children'shospitalofmichigan-dmc_standardcharges.json?sfvrsn=f9ea8d3b_4&download=true,3901 Beaubien Blvd.,Detroit,MI,48201,,"['3901 Beaubien Blvd.', 'Detroit', 'MI']",NA,NA
153,1538516851,Parkland Medical Center,https://parklandmedicalcenter.com/about/legal/pricing-transparency-cms-required-file-of-standard-charges.dot,1 Parkland Dr,Derry,NH,03038,2021-01-01 00:00:00 +0000 UTC,"['1 Parkland Dr', 'Derry', 'NH']",42.8773437,-71.31653798339849
154,1538522412,The Hospitals of Providence Transmountain Campus,https://www.thehospitalsofprovidence.com/docs/global/standard-charges/954537720_thehospitalofprovidencetransmountaincampus_standardcharges.json?sfvrsn=fd47d09f_4&download=true,2000 Transmountain Road,El Paso,TX,79911,,"['2000 Transmountain Road', 'El Paso', 'TX']",NA,NA
155,1538547815,CHI Health Immanuel,https://www.chihealth.com/content/dam/chi-health/website/documents/cost-estimates/Charges_CSVreport_11_Jan_2021_Immanuel.csv,7101 Newport Ave,Omaha,NE,68152,2021-01-01 00:00:00 +0000 UTC,"['7101 Newport Ave', 'Omaha', 'NE']",41.31947325,-96.0212817
156,1538566765,Midmichigan Medical Center West Branch,https://www.midmichigan.org/app/files/public/34967/464088182_midmichigan-medical-center-west-branch_standardcharges.csv,,,,,2021-01-01 00:00:00 +0000 UTC,"[nan, nan, nan]",NA,NA
157,1538689104,Natchaug Hospital,https://hartfordhealthcare.org/file%20library/price%20data/nh-prices.xlsx,189 Storrs Road,Mansfield,CT,6250,,"['189 Storrs Road', 'Mansfield', 'CT']",41.7410816,-72.1981721
158,1548204266,St. Michael's Hospital Avera,https://www.avera.org/app/files/public/74031/st-michaels-hospital-pricing.csv,410 West 16th Ave.,Tyndall,SD,57066-0027,,"['410 West 16th Ave.', 'Tyndall', 'SD']",42.9915655,-97.86734964844862
159,1548213739.0,Medical City Las Colinas,https://medicalcitylascolinas.com/about/legal/pricing-transparency-cms-required-file-of-standard-charges.dot,6800 N MacArthur Blvd,Irving,TX,75039.0,2021-01-01 00:00:00 +0000 UTC,"['6800 N MacArthur Blvd', 'Irving', 'TX']",32.90193547440741,-96.95897450731375
160,1548233257,Encompass Health Rehabilitation Hospital of Tallahassee,https://encompasshealth.com/locations/tallahasseerehab/transparency-healthcare,1675 RIGGINS RD,TALLAHASSEE,FL,323085315,,"['1675 RIGGINS RD', 'TALLAHASSEE', 'FL']",30.4595946,-84.23709018275993
161,1548233265,Encompass Health Rehabilitation Hospital of San Antonio,https://encompasshealth.com/locations/sanantoniorehab/transparency-healthcare,9119 CINNAMON HL,SAN ANTONIO,TX,78240,,"['9119 CINNAMON HL', 'SAN ANTONIO', 'TX']",29.52692585989048,-98.58337856216772
162,1275580938.0,HCA Houston Healthcare West,https://westhoustonmedical.com/about/legal/pricing-transparency-cms-required-file-of-standard-charges.dot,12141 Richmond Avenue,Houston,TX,77082.0,2021-01-01 00:00:00 +0000 UTC,"['12141 Richmond Avenue', 'Houston', 'TX']",29.7287812,-95.59442785453334
163,1275620627,Abbott Northwestern – WestHealth,https://www.allinahealth.org/-/media/allina-health/files/customer-service/billing-and-insurance/363261413-abbott-standardcharges.xlsx?la=en&hash=1E0BA34DE78DFB613E05CC1A50306BF7,,Plymouth,MN,,,"[nan, 'Plymouth', 'MN']",NA,NA
164,1275777690,OAKWOOD HEALTHCARE INC,https://www.beaumont.org/patients-families/billing/pricing/2021-beaumont-health-price-transparency-information,10000 TELEGRAPH RD,TAYLOR,MI,48180-3330,2021-01-17 00:00:00 +0000 UTC,"['10000 TELEGRAPH RD', 'TAYLOR', 'MI']",42.235226,-83.2765142986782
165,1275801789,RMC Bayonet Point (Level II Trauma Center),https://bayonetpointhospital.com/about/legal/pricing-transparency-cms-required-file-of-standard-charges.dot,14000 Fivay Rd,Hudson,FL,34667,2021-01-01 00:00:00 +0000 UTC,"['14000 Fivay Rd', 'Hudson', 'FL']",28.361202300000002,-82.68800984584342
166,1275813610,Encompass Health Rehabilitation Hospital of Cypress,https://encompasshealth.com/locations/cypressrehab/transparency-healthcare,13031 WORTHAM CENTER DR,HOUSTON,TX,77065,,"['13031 WORTHAM CENTER DR', 'HOUSTON', 'TX']",NA,NA
167,1275866584.0,Spotsylvania Regional Medical Center,https://spotsrmc.com/about/legal/pricing-transparency-cms-required-file-of-standard-charges.dot,4600 Spotsylvania Pkwy,Fredericksburg,VA,22408.0,2021-01-01 00:00:00 +0000 UTC,"['4600 Spotsylvania Pkwy', 'Fredericksburg', 'VA']",38.2177284,-77.49602472296269
168,1285672204,Sinai Hospital Of Baltimore,https://www.lifebridgehealth.org/Uploads/Public/Documents/PriceTransparency/StandardCharges/Sinai-Hospital-and-Kahlert-Cancer-Center.xlsx,2401 W Belvedere Ave,Baltimore,MD,21215-5216,,"['2401 W Belvedere Ave', 'Baltimore', 'MD']",39.3533665,-76.6643068
169,1285691725,River Falls Area Hospital,https://www.allinahealth.org/-/media/allina-health/files/customer-service/billing-and-insurance/363261413-river-falls-standardcharges.xlsx?la=en&hash=FBB3B427E9F59A71A5FC3CFC303C2F78,,River Falls,WI,,,"[nan, 'River Falls', 'WI']",NA,NA
170,1285701623,Los Alamos Medical Center,http://www.losalamosmedicalcenter.com/Content/Uploads/Los Alamos Medical Center/files/030390794_Los_Alamos_Medical_Center_Standard_Charges_12182020.zip,3917 West Road,Los Alamos,NM,87544,,"['3917 West Road', 'Los Alamos', 'NM']",35.88155725,-106.31918573828197
171,1285747519,ADVENTHEALTH DURAND,https://www.adventhealth.com/sites/default/files/CDM/2021/391365168_AdventHealthDurand_standardcharges.xml,1220 3RD AVE W,DURAND,WI,54736,2021-01-26 00:00:00 +0000 UTC,"['1220 3RD AVE W', 'DURAND', 'WI']",44.6204697,-91.96096219679674
172,1285800326.0,TriStar Hendersonville Medical Center,https://tristarhendersonville.com/about/legal/pricing-transparency-cms-required-file-of-standard-charges.dot,1000 Health Park Dr. Ste. 50,Brentwood,TN,37027.0,2021-01-01 00:00:00 +0000 UTC,"['1000 Health Park Dr. Ste. 50', 'Brentwood', 'TN']",NA,NA
173,1285803700,"MURRAY MEDICAL CENTER, INC.",https://www.adventhealth.com/sites/default/files/CDM/2021/581425000_AdventHealthMurray_standardcharges.xml,104 HOSPITAL DR,CHATSWORTH,GA,30705,2021-01-26 00:00:00 +0000 UTC,"['104 HOSPITAL DR', 'CHATSWORTH', 'GA']",34.782439534571715,-84.78385042230165
174,1285806984,AdventHealth Carrollwood,https://www.adventhealth.com/sites/default/files/CDM/2021/591113901_AdventHealthCarrollwood_standardcharges.xml,10987 Sheldon Rd Ste 100,Tampa,FL,33626,2021-01-01 00:00:00 +0000 UTC,"['10987 Sheldon Rd Ste 100', 'Tampa', 'FL']",NA,NA
175,1285936807.0,St. Mark's Hospital,https://stmarkshospital.com/about/legal/pricing-transparency-cms-required-file-of-standard-charges.dot,1200 East 3900 South,Salt Lake City,UT,84124.0,2021-01-01 00:00:00 +0000 UTC,"['1200 East 3900 South', 'Salt Lake City', 'UT']",40.68617965,-111.8569861055295
176,1285993915,Encompass Health Rehabilitation Hospital of Ocala,https://encompasshealth.com/locations/ocalarehab/transparency-healthcare,2275 SW 22ND LN,OCALA,FL,34471,,"['2275 SW 22ND LN', 'OCALA', 'FL']",NA,NA
177,1295016103,SINAI GRACE HOSPITAL,https://www.dmc.org/patients/pricing-info-estimates/hospital-pricing-information,9358 LOUIS,REDFORD,MI,482391746,2021-01-18 00:00:00 +0000 UTC,"['9358 LOUIS', 'REDFORD', 'MI']",42.36127472780725,-83.29012274770173
178,1295181477,Alta Bates Summit Medical Center - Summit Campus,https://www.sutterhealth.org/pdf/chargemaster/chargemaster-absmc-summit.csv,350 HAWTHORNE AVE,OAKLAND,CA,94609-3108,,"['350 HAWTHORNE AVE', 'OAKLAND', 'CA']",37.8205823,-122.2664037
179,1295747608,Avera Flandreau Hospital,https://www.avera.org/app/files/public/74003/flandreau-medical-center-pricing.xls,214 N Prairie St,Flandreau,SD,57028-1243,,"['214 N Prairie St', 'Flandreau', 'SD']",44.05126385,-96.59152548341899
180,1295754844,Aspirus Riverview Hospital,https://www.aspirus.org/Uploads/Public/Documents/ChargeMasters/39-0868982_Aspirus%20Riverview%20Hospital_standard%20charges.CSV,410 Dewey St,Wisconsin Rapids,WI,54494-4715,,"['410 Dewey St', 'Wisconsin Rapids', 'WI']",44.38212885,-89.8284511906669
181,1295763803,Carondelet St. Joseph's Hospital,https://www.carondelet.org/docs/global/standard-charges/474131755_carondeletst-josephhospital_standardcharges.json?sfvrsn=4c185036_2&download=true,350 N. Wilmot Road,Tucson,AZ,85711,,"['350 N. Wilmot Road', 'Tucson', 'AZ']",32.22691825,-110.855436239915
182,1295772259,Lakeview Regional Medical Center,https://lakeviewregional.com/about/legal/pricing-transparency-cms-required-file-of-standard-charges.dot,95 Judge Tanner Blvd,Covington,LA,70433,2021-01-01 00:00:00 +0000 UTC,"['95 Judge Tanner Blvd', 'Covington', 'LA']",30.4110476,-90.08036087403406
183,1295772259.0,Lakeview Regional Medical Center,https://lakeviewregional.com/about/legal/pricing-transparency-cms-required-file-of-standard-charges.dot,95 Judge Tanner Blvd,Covington,LA,70433.0,2021-01-01 00:00:00 +0000 UTC,"['95 Judge Tanner Blvd', 'Covington', 'LA']",30.4110476,-90.08036087403406
184,1295785285,"OAKWOOD HEALTHCARE, INC.",https://www.beaumont.org/patients-families/billing/pricing/2021-beaumont-health-price-transparency-information,33155 ANNAPOLIS ST,WAYNE,MI,48184-2405,2021-01-17 00:00:00 +0000 UTC,"['33155 ANNAPOLIS ST', 'WAYNE', 'MI']",42.2728924,-83.36539705276817
185,1295787919,Cooley Dickinson Health Care,https://healthcare.partners.org/pricetransparency/222617175_Cooley-Dickinson-Hospital_StandardCharges.zip,30 Locust St,Northampton,MA,01060,,"['30 Locust St', 'Northampton', 'MA']",42.33032115,-72.65330802608176
186,1295789295,Southern Kentucky Rehabilitation Hospital,https://skyrehab.com/wp-content/uploads/sites/17/2021/02/030501856_Southern-Kentucky-Rehabilitation-Hospital_Standard-Charges.xlsx,1300 Campbell Lane, Bowling Green,KY,42104,,"['1300 Campbell Lane', ' Bowling Green', 'KY']",36.9574581,-86.44638009808816
187,1295789907,Carolinas Medical Center,https://chsprodrsrcegrporg385.blob.core.windows.net/cms-price-transparency/56-1398929_CarolinasMedicalCenter_StandardCharges.json,1000 Blythe Blvd. ,Charlotte,NC,28203,,"['1000 Blythe Blvd. ', 'Charlotte', 'NC']",35.20374595,-80.83931376395819
188,1295803377,ASCENSION ALLEGAN HOSPITAL,https://healthcare.ascension.org/-/media/project/ascension/healthcare/price-transparency-files/mi/381359180_ascension-borgess-allegan-hospital_standardcharges.xlsx,555 LINN ST,ALLEGAN,MI,49010-1524,,"['555 LINN ST', 'ALLEGAN', 'MI']",42.520149950000004,-85.8562009402024
189,1295843753,Valley Baptist Medical Center,https://www.valleybaptist.net/docs/global/standard-charges/452663071_valleybaptistmedicalcenterbrownsville_standardcharges.json?sfvrsn=3bb4b99_4&download=true,1040 West Jefferson,Brownsville,TX,78520,,"['1040 West Jefferson', 'Brownsville', 'TX']",25.91724635,-97.5101547532971
190,1295848950,Sanford Sheldon Medical Center,https://www.sanfordhealth.org/-/media/org/files/patients-and-visitors/billing-insurance/price-estimates/sanford-sheldon-2021.csv?la=en&hash=1C8B661F04D800F1F0975B010B05C3642D102991,118 N 7th Ave,Sheldon,IA,51201-1235,,"['118 N 7th Ave', 'Sheldon', 'IA']",43.186589600000005,-95.84651558736674
191,1295880912,Woodland Hills Medical Center,https://healthy.kaiserpermanente.org/content/dam/kporg/final/documents/health-plan-documents/coverage-information/941340523_WoodlandHillsMedicalCenter_standardcharges.xlsx,5601 De Soto Ave,Woodland Hills,CA,91367,2021-01-01 00:00:00 +0000 UTC,"['5601 De Soto Ave', 'Woodland Hills', 'CA']",34.1725361,-118.5898098
192,1295959245,WILLIAM BEAUMONT HOSPITAL,https://www.beaumont.org/patients-families/billing/pricing/2021-beaumont-health-price-transparency-information,3601 W 13 MILE RD,ROYAL OAK,MI,48073,2021-01-16 00:00:00 +0000 UTC,"['3601 W 13 MILE RD', 'ROYAL OAK', 'MI']",42.5134264,-83.1916698
193,1295982882.0,HCA Houston Healthcare – Medical Center,https://parkplazahospital.com/about/legal/pricing-transparency-cms-required-file-of-standard-charges.dot,1313 Hermann Dr,Houston,TX,77004.0,2021-01-01 00:00:00 +0000 UTC,"['1313 Hermann Dr', 'Houston', 'TX']",29.72345775,-95.3870177461601
194,1306056056,Aurora Medical Center Of Washington County,https://www.aurorahealthcare.org/-/media/aurorahealthcareorg/documents/billing-insurance/pricing-transparency/hartford-pt1-publication-20210101.xlsx?la=en&hash=491C2F158F344D65E85F5908C5C6BF625D3A33A7,1032 E Sumner St,Hartford,WI,53027-1608,,"['1032 E Sumner St', 'Hartford', 'WI']",43.3187236,-88.36252052962536
195,1306066493,Newport Hospital,https://www.lifespan.org/sites/default/files/2020-12/Chargemaster-NPH.xlsx,11 Friendship St,Newport,RI,02840-2209,,"['11 Friendship St', 'Newport', 'RI']",41.49691085,-71.30599900885085
196,1306069539,Sutter Maternity and Surgery Center of Santa Cruz,https://www.sutterhealth.org/pdf/chargemaster/chargemaster-smscsc.csv,2900 Chanticleer Avenue,Santa Cruz,CA,95065,,"['2900 Chanticleer Avenue', 'Santa Cruz', 'CA']",36.987220487889154,-121.97827653824129
197,1306261391,WILLIAM BEAUMONT HOSPITAL - CRNA,https://www.beaumont.org/patients-families/billing/pricing/2021-beaumont-health-price-transparency-information,468 CADIEUX RD,GROSSE POINTE,MI,48230-1507,2021-01-17 00:00:00 +0000 UTC,"['468 CADIEUX RD', 'GROSSE POINTE', 'MI']",42.383509849999996,-82.91382827966505
198,1306819008,Encompass Health Rehabilitation Hospital of Largo,https://encompasshealth.com/locations/largorehab/transparency-healthcare,901 CLEARWATER LARGO RD N,LARGO,FL,337704126,,"['901 CLEARWATER LARGO RD N', 'LARGO', 'FL']",27.92543015,-82.79730235901744
199,1306825997,WILLIAM BEAUMONT HOSPITAL,https://www.beaumont.org/patients-families/billing/pricing/2021-beaumont-health-price-transparency-information,44201 DEQUINDRE RD,TROY,MI,48085-1198,2021-01-17 00:00:00 +0000 UTC,"['44201 DEQUINDRE RD', 'TROY', 'MI']",42.620904162934885,-83.09141882905487
200,1043269350,WILLIAM BEAUMONT HOSPITAL,https://www.beaumont.org/patients-families/billing/pricing/2021-beaumont-health-price-transparency-information,3601 W 13 MILE RD,ROYAL OAK,MI,48073-6712,2021-01-16 00:00:00 +0000 UTC,"['3601 W 13 MILE RD', 'ROYAL OAK', 'MI']",42.5134264,-83.1916698
201,1043284706,Encompass Health Rehabilitation Hospital of Tustin,https://www.encompasshealth.com/locations/tustinrehab/transparency-healthcare,14851 YORBA ST,TUSTIN,CA,927802925,,"['14851 YORBA ST', 'TUSTIN', 'CA']",33.7602448,-117.8270752
202,1043291164,Sutter Tracy Community Hospital,https://www.sutterhealth.org/pdf/chargemaster/chargemaster-stch.csv,1420 N Tracy Blvd,Tracy,CA,95376,,"['1420 N Tracy Blvd', 'Tracy', 'CA']",37.768,-121.4350966
203,1043314438.0,Reston Hospital Center,https://restonhospital.com/about/legal/pricing-transparency-cms-required-file-of-standard-charges.dot,901 E. Cary St Suite 210,Richmond,VA,,2021-01-01 00:00:00 +0000 UTC,"['901 E. Cary St Suite 210', 'Richmond', 'VA']",NA,NA
204,1043323918,Hartford Hospital,https://hartfordhealthcare.org/file%20library/price%20data/hh-prices.xlsx,80 Seymour St,Hartford,CT,06102-8000,,"['80 Seymour St', 'Hartford', 'CT']",41.753091,-72.6811519
205,1043386956,Pipestone County Medical Center,https://www.avera.org/app/files/public/74020/pipestone-county-medical-center-pricing.xls,916 4th Ave Sw,Pipestone,MN,56164-1890,,"['916 4th Ave Sw', 'Pipestone', 'MN']",43.991599666666666,-96.322222
206,1043387426,Minidoka Medical Center,https://minidokamemorial.com/wp-content/uploads/2020/12/Chargemaster-.xls,"1308 8th St, Suite 1",Rupert,ID,83350-1530,,"['1308 8th St, Suite 1', 'Rupert', 'ID']",NA,NA
207,1043523210.0,St. Lucie Medical Center,https://stluciemed.com/about/legal/pricing-transparency-cms-required-file-of-standard-charges.dot,1800 SE Tiffany Ave,St Lucie,FL,34952.0,2021-01-01 00:00:00 +0000 UTC,"['1800 SE Tiffany Ave', 'St Lucie', 'FL']",27.288805449999998,-80.29420308952785
208,1043526023,Vibra Hospital of Mahoning Valley – Trumbull Campus,https://vhmvalley.com/wp-content/uploads/sites/29/2021/02/273309582_Vibra-Hospital-of-Mahoning-Valley_Standard-Charges.xlsx,"1350 East Market St., 9th Floor", Warren,OH,44482,,"['1350 East Market St., 9th Floor', ' Warren', 'OH']",NA,NA
209,1518051960,AdventHealth Kissimmee,https://www.adventhealth.com/sites/default/files/CDM/2021/591479658_AdventHealthOrlando_standardcharges.xml,2501 N. Orange Ave,Orlando,FL,32804-4640,,"['2501 N. Orange Ave', 'Orlando', 'FL']",28.5753182,-81.3724209
210,1548272818,Milbank Area Hospital,https://www.avera.org/app/files/public/74018/milbank-area-hospital-pricing.xls,301 Flynn Dr,Milbank,SD,57252-1502,,"['301 Flynn Dr', 'Milbank', 'SD']",NA,NA
211,1043641749,Baylor Scott & White Emergency Hospital - Colleyville,https://www.bsweh.org/bsw-assets/uploads/forms/262978009_364755936_BSWEMERGENCYHOSPITALS_STANDARDCHARGES.csv,5500 Colleyville Blvd,Colleyville,TX,76034,,"['5500 Colleyville Blvd', 'Colleyville', 'TX']",32.88494193506493,-97.15295032467532
212,1548275134,CMH Regional Health System,https://www.cmhregional.com/sites/clinton/assets/uploads/27-3633811_CLINTON_MEMORIAL_HOSPITAL_StandardCharges_1.zip,610 W. Main St.,Wilmington,OH,45177,,"['610 W. Main St.', 'Wilmington', 'OH']",39.443930300000005,-83.83926464551001
213,1043670334,Mills-Peninsula Medical Center,https://www.sutterhealth.org/pdf/chargemaster/chargemaster-mpmc.csv,1501 Trousdale Dr,Burlingame,CA,94010,2021-02-17 00:00:00 +0000 UTC,"['1501 Trousdale Dr', 'Burlingame', 'CA']",37.5925323,-122.3823499563518
214,1548293343,Danbury Hospital,https://www.danburyhospital.org/-/media/wchn/shared/files/billing/wchn-federal-chargemaster-docs/dh-chargemaster.xlsx?la=en&hash=D58AABC12CFF461382CB240802597F104FE3B939,24 Hospital Ave,Danbury,CT,06810-6099,,"['24 Hospital Ave', 'Danbury', 'CT']",41.40521795,-73.44515867833094
215,1043681174,VHS SINAI-GRACE HOSPITAL INC,https://www.dmc.org/patients/pricing-info-estimates/hospital-pricing-information,6071 W OUTER DR,DETROIT,MI,482352624,2021-01-18 00:00:00 +0000 UTC,"['6071 W OUTER DR', 'DETROIT', 'MI']",42.41907925,-83.18238206795442
216,1043814601,ASCENSION ST. MARY'S HOSPITAL,https://healthcare.ascension.org/-/media/project/ascension/healthcare/price-transparency-files/mi/380997730_ascension-st-marys-hospital_standardcharges.xlsx,4677 TOWNE CENTRE RD FL 2,SAGINAW,MI,48604-2846,,"['4677 TOWNE CENTRE RD FL 2', 'SAGINAW', 'MI']",NA,NA
217,1548546088,Encompass Health Rehabilitation Hospital of Austin,https://encompasshealth.com/locations/austinrehab/transparency-healthcare,330 W. BEN WHITE BLVD.,AUSTIN,TX,78704,,"['330 W. BEN WHITE BLVD.', 'AUSTIN', 'TX']",30.22588655,-97.76635608488331
218,1053309120,Atlantic General Hospital Corp,https://www.atlanticgeneral.org/images/521656507_Atlantic-General-Hospital_standard-charges.csv,9733 Healthway Dr,Berlin,MD,21811-1155,,"['9733 Healthway Dr', 'Berlin', 'MD']",38.3382385,-75.21047589098166
219,1053321919,ADVENTHEALTH TAMPA,https://www.adventhealth.com/sites/default/files/CDM/2021/591113901_AdventHealthTampa_standardcharges.xml,3100 E FLETCHER AVE,TAMPA,FL,33613,2021-01-26 00:00:00 +0000 UTC,"['3100 E FLETCHER AVE', 'TAMPA', 'FL']",28.07107475,-82.42374939767217
220,1548824824,AdventHealth Kissimmee,https://www.adventhealth.com/sites/default/files/CDM/2021/591479658_AdventHealthOrlando_standardcharges.xml,10987 Sheldon Rd Ste 100,Tampa,FL,33626,2021-01-01 00:00:00 +0000 UTC,"['10987 Sheldon Rd Ste 100', 'Tampa', 'FL']",NA,NA
221,1053353490,Saint Luke’s East Hospital,https://www.saintlukeskc.org/sites/default/files/2021-01/Saint_Lukes_East_12312020.csv,100 NE Saint Luke's Blvd,Lee's Summit,MO,64086,2021-01-01 00:00:00 +0000 UTC,"[""100 NE Saint Luke's Blvd"", ""Lee's Summit"", 'MO']",38.941448949999995,-94.38100396092653
222,1558328435,New Ulm Medical Center,https://www.allinahealth.org/-/media/allina-health/files/customer-service/billing-and-insurance/363261413-new-ulm-standardcharges.xlsx?la=en&hash=17E4A2728D125BDB6469F58B3B64D164,,New Ulm,MN,,,"[nan, 'New Ulm', 'MN']",NA,NA
223,1053358010.0,Riverside Community Hospital,https://riversidecommunityhospital.com/about/legal/pricing-transparency-cms-required-file-of-standard-charges.dot,4445 Magnolia Ave,Riverside,CA,92501.0,2021-01-01 00:00:00 +0000 UTC,"['4445 Magnolia Ave', 'Riverside', 'CA']",33.97625744897959,-117.37838057142856
224,1558391771,SACRED HEART HOSPITAL ON THE EMERALD COAST,https://healthcare.ascension.org/-/media/project/ascension/healthcare/price-transparency-files/fl/721529708_ascension-sacred-heart-emerald-coast_standardcharges.xlsx,7800 US HIGHWAY 98 W,DESTIN,FL,32550-7228,,"['7800 US HIGHWAY 98 W', 'DESTIN', 'FL']",NA,NA
225,1053495879,Sutter Lakeside Hospital,https://www.sutterhealth.org/pdf/chargemaster/chargemaster-slh.csv,5176 Hill Rd E,Lakeport,CA,95453,,"['5176 Hill Rd E', 'Lakeport', 'CA']",39.10482185,-122.90645570108993
226,1558423632,Floyd Valley Healthcare,https://www.avera.org/app/files/public/74004/floyd-valley-hospital-pricing.xls,714 Lincoln St Ne,Le Mars,IA,51031-3314,,"['714 Lincoln St Ne', 'Le Mars', 'IA']",42.79634965,-96.1547272732416
227,1053683185.0,St. David's HealthCare,https://stdavids.com/about/legal/pricing-transparency-cms-required-file-of-standard-charges.dot,,,,,2021-01-01 00:00:00 +0000 UTC,"[nan, nan, nan]",NA,NA
228,1053710889,Maui Memorial Medical Center,https://res.cloudinary.com/dpmykpsih/raw/upload/maui-health-site-309/media/r/14525134e99846e49dcf9b9984c56184/811559375_mauimemorialmedicalcenter_standardcharges.xlsb,221 Mahalani St,Wailuku,HI,96793-2526,,"['221 Mahalani St', 'Wailuku', 'HI']",20.88465665,-156.48965748601668
229,1053778860,Vibra Hospital of Richardson,https://vhrichardson.com/wp-content/uploads/sites/32/2021/02/204779077_Vibra-Specialty-Hosptial-of-Richardson_Standard-Charges.xlsx,"401 West Campbell Road, Suite 300", Richardson,TX,75080,,"['401 West Campbell Road, Suite 300', ' Richardson', 'TX']",NA,NA
230,1558436006,Vibra Specialty Hospital of Portland,https://vshportland.com/wp-content/uploads/sites/39/2021/02/205338343_Vibra-Specialty-Hospital-of-Portland_Standard-Charges.xlsx,10300 NE Hancock St., Portland,OR,97220,,"['10300 NE Hancock St.', ' Portland', 'OR']",45.53579595,-122.55671526288336
231,1558441311,Kau Hospital,https://hhsc.pt.panaceainc.com/MRFDownload/hhsc/kau,1 Kamani Street,Pahala,HI,96777,,"['1 Kamani Street', 'Pahala', 'HI']",19.1993341,-155.47204240353932
232,1558463745,Saint Mary’s Regional Health System,http://www.saintmarysregional.com/wp-content/uploads/2021/01/62-1771866_SAINT_MARYS_REGIONAL_HEALTH_SYSTEM_StandardCharges.zip,1808 West Main Street,Russellville,AR,72801,,"['1808 West Main Street', 'Russellville', 'AR']",35.28422475,-93.14909972264508
233,1558582429,Bonner General Hospital,https://www.bonnergeneral.org/wp-content/uploads/2020/03/CDM4WEBSITE.csv,520 N 3rd Ave,Sandpoint,ID,83864-1507,,"['520 N 3rd Ave', 'Sandpoint', 'ID']",48.277457600000005,-116.54987241174877
234,1558904417,Lakes Regional Healthcare,https://www.avera.org/app/files/public/74013/lakes-regional-healthcare-pricing.xls,2408 Zenith Avenue,Spirit Lake,IA,51360,,"['2408 Zenith Avenue', 'Spirit Lake', 'IA']",43.41591461420486,-95.12330007930095
235,1558968560,Sanford Bismarck,https://www.sanfordhealth.org/-/media/org/files/patients-and-visitors/billing-insurance/price-estimates/sanford-medical-center-bismarck.csv?la=en&hash=8A22F771B66EC7161743E717DF037BA56732A6D1,300 N 7th St,Bismarck,ND,58501-4439,,"['300 N 7th St', 'Bismarck', 'ND']",46.80749415,-100.78233460544614
236,1568401016,Avera Marshall Regional Medical Center,https://www.avera.org/app/files/public/74016/marshall-regional-medical-center-pricing.xls,300 S Bruce St,Marshall,MN,56258-1934,,"['300 S Bruce St', 'Marshall', 'MN']",44.447763699999996,-95.7773492508064
237,1053824292.0,Memorial Health,https://memorialhealth.com/about/legal/pricing-transparency-cms-required-file-of-standard-charges.dot,4700 Waters Avenue,Savannah,GA,31404.0,2021-01-01 00:00:00 +0000 UTC,"['4700 Waters Avenue', 'Savannah', 'GA']",32.0283088,-81.08860897764168
238,1053972760,ADVENTHEALTH LAKE WALES,https://www.adventhealth.com/sites/default/files/CDM/2021/834672945_AdventHealthLake Wales_standardcharges.xml,410 SOUTH 11TH STREET,LAKE WALES,FL,33853,2021-01-26 00:00:00 +0000 UTC,"['410 SOUTH 11TH STREET', 'LAKE WALES', 'FL']",27.8956996,-81.56539790464527
239,1568414589,Midmichigan Medical Center Clare,https://www.midmichigan.org/app/files/public/34964/381518643_midmichigan-medical-center-clare_standardcharges.csv,,,,,2021-01-01 00:00:00 +0000 UTC,"[nan, nan, nan]",NA,NA
240,1568415974,Essentia Health-St. Joseph's Medical Center (Brainerd),https://www.essentiahealth.org/app/files/public/3628/st-josephs-medical-center-brainerd-hospital-service-charges.csv,523 N 3rd St,Brainerd,MN,56401,,"['523 N 3rd St', 'Brainerd', 'MN']",46.3619024,-94.20565185324152
241,1568416311,ASCENSION BORGESS HOSPITAL,https://healthcare.ascension.org/-/media/project/ascension/healthcare/price-transparency-files/mi/381360526_ascension-borgess-hospital-and-ascension-borgess-pipp-hospital_standardcharges.xlsx,1521 GULL RD,KALAMAZOO,MI,49048-1640,,"['1521 GULL RD', 'KALAMAZOO', 'MI']",42.307834400000004,-85.55984012117909
242,1063407229,Sutter Lakeside Hospital,https://www.sutterhealth.org/pdf/chargemaster/chargemaster-slh.csv,5176 Hill Rd E,Lakeport,CA,95453,2021-02-17 00:00:00 +0000 UTC,"['5176 Hill Rd E', 'Lakeport', 'CA']",39.10482185,-122.90645570108993
243,1568427383,Cambridge Medical Center,https://www.allinahealth.org/-/media/allina-health/files/customer-service/billing-and-insurance/363261413-cambridge-standardcharges.xlsx?la=en&hash=7E38E961A88B86EEF86F8FE0225715C1,,Cambridge,MN,,,"[nan, 'Cambridge', 'MN']",NA,NA
244,1063411767,Paris Regional Medical Center,https://parisregionalmedical.com/sites/paris/assets/uploads/33-1073948_PARIS_REGIONAL_MEDICAL_CENTER_StandardCharges.zip,865 DeShong Drive,Paris,TX,75460,,"['865 DeShong Drive', 'Paris', 'TX']",33.6874797,-95.5482588837663
245,1063442770,Hialeah Hospital,https://www.hialeahhosp.com/docs/global/standard-charges/752653770_hialeahhospital_standardcharges.json?sfvrsn=6dd27c79_4&download=true,651 East 25th St.,Hialeah,FL,33013,,"['651 East 25th St.', 'Hialeah', 'FL']",25.845535650000002,-80.26862207729306
246,1568436798,Encompass Health Rehabilitation Hospital of Bakersfield,https://encompasshealth.com/locations/bakersfieldrehab/transparency-healthcare,5001 COMMERCE DR,BAKERSFIELD,CA,933090648,,"['5001 COMMERCE DR', 'BAKERSFIELD', 'CA']",35.36769333126837,-119.05896156967093
247,1063443455,IU Health West Hospital,https://cdn.iuhealth.org/resources/35-1814660_IU-Health-West-Hospital_standardcharges.txt?mtime=20210202164451&focal=none,1111 N Ronald Reagan Pkwy,Avon,IN,46123,,"['1111 N Ronald Reagan Pkwy', 'Avon', 'IN']",39.7598802,-86.3366898
248,1568460772,Avera Mckennan Hospital And University Health Center,https://www.avera.org/app/files/public/74017/mckennan-hospital-pricing.xls,1325 S Cliff Ave,Sioux Falls,SD,57105-1007,,"['1325 S Cliff Ave', 'Sioux Falls', 'SD']",43.5342315,-96.7144487
249,1063459022.0,Frankfort Regional Medical Center,https://frankfortregional.com/about/legal/pricing-transparency-cms-required-file-of-standard-charges.dot,299 Kings Daughters Dr,Frankfort,KY,40601.0,2021-01-01 00:00:00 +0000 UTC,"['299 Kings Daughters Dr', 'Frankfort', 'KY']",38.1599796,-84.90717692161739
250,1568473015,TARPON SPRINGS HOSPITAL FOUNDATION INC,https://www.adventhealth.com/sites/default/files/CDM/2021/590898901_AdventHealthNorth Pinellas_standardcharges.xml,1395 S PINELLAS AVE,TARPON SPRINGS,FL,34689,2021-01-26 00:00:00 +0000 UTC,"['1395 S PINELLAS AVE', 'TARPON SPRINGS', 'FL']",28.132964100000002,-82.7574993403646
251,1568492916,IU Health North Hospital,https://cdn.iuhealth.org/resources/35-1932442_IU-Health-North-Hospital_standardcharges.txt?mtime=20210202164511&focal=none,11700 N Meridian St,Carmel,IN,46032,,"['11700 N Meridian St', 'Carmel', 'IN']",39.95903765,-86.16027634858844
252,1063461366,WILLIAM BEAUMONT HOSPITAL,https://www.beaumont.org/patients-families/billing/pricing/2021-beaumont-health-price-transparency-information,3601 W 13 MILE RD,ROYAL OAK,MI,48073-6712,2021-01-16 00:00:00 +0000 UTC,"['3601 W 13 MILE RD', 'ROYAL OAK', 'MI']",42.5134264,-83.1916698
253,1568493641,Palmetto General Hospital,https://www.palmettogeneral.com/docs/global/standard-charges/741802680_palmettogeneralhospital_standardcharges.json?sfvrsn=76bdb89c_4&download=true,2001 West 68th St.,Hialeah,FL,33016,,"['2001 West 68th St.', 'Hialeah', 'FL']",25.8862447,-80.3272825
254,1063466035.0,HCA Houston Healthcare Clear Lake,https://clearlakermc.com/about/legal/pricing-transparency-cms-required-file-of-standard-charges.dot,500 Medical Center Blvd.,Webster,TX,77598.0,2021-01-01 00:00:00 +0000 UTC,"['500 Medical Center Blvd.', 'Webster', 'TX']",29.5410711,-95.1262829
255,1568493922,Los Alamitos Medical Center,https://www.losalamitosmedctr.com/docs/global/standard-charges/752919839_losalamitosmedicalcenter_standardcharges.json?sfvrsn=14e4d64c_4&download=true,3751 Katella Ave.,Los Alamitos,CA,90720,,"['3751 Katella Ave.', 'Los Alamitos', 'CA']",33.8031957,-118.0833872
256,1063466563,Northwest Medical Center,https://northwestmed.com/about/legal/pricing-transparency-cms-required-file-of-standard-charges.dot,2801 North State Rd 7,Margate,FL,33063,2021-01-01 00:00:00 +0000 UTC,"['2801 North State Rd 7', 'Margate', 'FL']",NA,NA
257,1063466563.0,Northwest Medical Center,https://northwestmed.com/about/legal/pricing-transparency-cms-required-file-of-standard-charges.dot,2801 North State Rd 7,Margate,FL,33063.0,2021-01-01 00:00:00 +0000 UTC,"['2801 North State Rd 7', 'Margate', 'FL']",NA,NA
258,1568532810,The Hospital Of Central Connecticut,https://hartfordhealthcare.org/file%20library/price%20data/hocc-prices.xlsx,"100 Grand St, Emergency Department",New Britain,CT,06052-2016,,"['100 Grand St, Emergency Department', 'New Britain', 'CT']",NA,NA
259,1063466589,Westside Regional Medical Center,https://westsideregional.com/about/legal/pricing-transparency-cms-required-file-of-standard-charges.dot,8201 W Broward Blvd,Plantation,FL,33324,2021-01-01 00:00:00 +0000 UTC,"['8201 W Broward Blvd', 'Plantation', 'FL']",26.124855949999997,-80.25956941432699
260,1568540581,WILLIAM BEAUMONT HOSPITAL,https://www.beaumont.org/patients-families/billing/pricing/2021-beaumont-health-price-transparency-information,3601 W 13 MILE RD,ROYAL OAK,MI,48073-6712,2021-01-16 00:00:00 +0000 UTC,"['3601 W 13 MILE RD', 'ROYAL OAK', 'MI']",42.5134264,-83.1916698
261,1063466589.0,Westside Regional Medical Center,https://westsideregional.com/about/legal/pricing-transparency-cms-required-file-of-standard-charges.dot,8201 W Broward Blvd,Plantation,FL,33324.0,2021-01-01 00:00:00 +0000 UTC,"['8201 W Broward Blvd', 'Plantation', 'FL']",26.124855949999997,-80.25956941432699
262,1063470763,Belton Regional Medical Center,https://beltonregionalmedicalcenter.com/about/legal/pricing-transparency-cms-required-file-of-standard-charges.dot,17065 S. 71 Highway,Belton,MO,64012,2021-01-01 00:00:00 +0000 UTC,"['17065 S. 71 Highway', 'Belton', 'MO']",NA,NA
263,1568727048,UP Health System – Marquette,http://www.mgh.org/Content/Uploads/UP Health System - Marquette/files/800818718_Marquette_General_Hospital_Standard_Charges_12192020.zip,580 West College Avenue,Marquette,MI,49855,,"['580 West College Avenue', 'Marquette', 'MI']",46.554156,-87.40047205297702
264,1063470763.0,Belton Regional Medical Center,https://beltonregionalmedicalcenter.com/about/legal/pricing-transparency-cms-required-file-of-standard-charges.dot,17065 S. 71 Highway,Belton,MO,64012.0,2021-01-01 00:00:00 +0000 UTC,"['17065 S. 71 Highway', 'Belton', 'MO']",NA,NA
265,1568812949,IU Health Methodist Hospital,https://cdn.iuhealth.org/resources/35-1955872_IU-Health-Methodist-Hospital_standardcharges.txt?mtime=20210202164532&focal=none,1701 N Senate Blvd,Indianapolis,IN,46202,,"['1701 N Senate Blvd', 'Indianapolis', 'IN']",NA,NA
266,1063486710,Encompass Health Rehabilitation Hospital of Las Vegas,https://encompasshealth.com/locations/lasvegasrehab/transparency-healthcare,1250 S VALLEY VIEW BLVD,LAS VEGAS,NV,891021855,,"['1250 S VALLEY VIEW BLVD', 'LAS VEGAS', 'NV']",36.1580255,-115.1913903
267,1568948032.0,HCA Houston Healthcare North Cypress,https://ncmc-hospital.com/about/legal/pricing-transparency-cms-required-file-of-standard-charges.dot,21214 NW Freeway,Cypress,TX,77429.0,2021-01-01 00:00:00 +0000 UTC,"['21214 NW Freeway', 'Cypress', 'TX']",29.9265299,-95.63106352756031
268,1063494177,Saint Luke’s Hospital,https://www.saintlukeskc.org/sites/default/files/2021-01/Saint_Lukes_Hospital_KC_12312020.csv,4401 Wornall Rd,Kansas City,MO,64111,2021-01-01 00:00:00 +0000 UTC,"['4401 Wornall Rd', 'Kansas City', 'MO']",39.046483,-94.590033
269,1578013736,Lourdes Health,https://www.yourlourdes.com/sites/lourdes/assets/uploads/36-4850536_LOURDES_HEALTH_StandardCharges.zip,520 N. 4th Ave.,Pasco,WA,99301,,"['520 N. 4th Ave.', 'Pasco', 'WA']",46.2343574,-119.0941664
270,1063582989,San Jose Medical Center,https://healthy.kaiserpermanente.org/content/dam/kporg/final/documents/health-plan-documents/coverage-information/941340523_SanJoseMedicalCenter_standardcharges.xlsx,250 Hospital Pkwy,San Jose,CA,95119,2021-01-01 00:00:00 +0000 UTC,"['250 Hospital Pkwy', 'San Jose', 'CA']",37.24006545,-121.80088258316484
271,1578058137,Trios Health,https://www.trioshealth.org/sites/trios/assets/uploads/82-3962056_TRIOS_HEALTH_StandardCharges.zip,3810 Plaza Way,Kennewick,WA,99338,,"['3810 Plaza Way', 'Kennewick', 'WA']",46.17792135,-119.1919430166213
272,1063596336,The Union Memorial Hospital,https://ct1.medstarhealth.org/content/uploads/sites/11/2021/01/520591685_MedStar-Union-Memorial-Hospital_Standard-Charges.xlsx,201 E University Pkwy,Baltimore,MD,21218-2829,,"['201 E University Pkwy', 'Baltimore', 'MD']",39.3298384,-76.6148459
273,1063796688,Sunrise Hospital & Medical Center,https://sunrisehospital.com/about/legal/pricing-transparency-cms-required-file-of-standard-charges.dot,3186 S Maryland Pkwy,Las Vegas,NV,89109,2021-01-01 00:00:00 +0000 UTC,"['3186 S Maryland Pkwy', 'Las Vegas', 'NV']",36.13445455,-115.13562809133165
274,1578072906,BEAUMONT MEDICAL GROUP- SPECIALTY SERVICES,https://www.beaumont.org/patients-families/billing/pricing/2021-beaumont-health-price-transparency-information,3601 W 13 MILE RD,ROYAL OAK,MI,48073-6712,2021-01-16 00:00:00 +0000 UTC,"['3601 W 13 MILE RD', 'ROYAL OAK', 'MI']",42.5134264,-83.1916698
275,1063812907,Eden Medical Center,https://www.sutterhealth.org/pdf/chargemaster/chargemaster-emc.csv,20103 Lake Chabot Road,Castro Valley,CA,94546,2021-02-17 00:00:00 +0000 UTC,"['20103 Lake Chabot Road', 'Castro Valley', 'CA']",37.698084449999996,-122.08927136875985
276,1578500484.0,Overland Park Regional Medical Center,https://oprmc.com/about/legal/pricing-transparency-cms-required-file-of-standard-charges.dot,10500 Quivira Road,Overland Park,KS,66215.0,2021-01-01 00:00:00 +0000 UTC,"['10500 Quivira Road', 'Overland Park', 'KS']",38.9369489,-94.72593315874786
277,1063844306,Vibra Hospital of Amarillo,https://vhamarillo.com/wp-content/uploads/sites/2/2021/02/462640171_Vibra-Hospital-of-Amarillo_Standard-Charges.xlsx,7501 Wallace Blvd., Amarillo,TX,79124,,"['7501 Wallace Blvd.', ' Amarillo', 'TX']",35.19411785,-101.92672323489624
278,1063969160,KAISER PERMANENTE WESTSIDE HOSPITAL,https://healthy.kaiserpermanente.org/content/dam/kporg/final/documents/health-plan-documents/coverage-information/941105628_WestsideMedicalCenter_shoppableservices.xlsx,2875 NW STUCKI AVE,HILLSBORO,OR,97124-5806,2021-01-01 00:00:00 +0000 UTC,"['2875 NW STUCKI AVE', 'HILLSBORO', 'OR']",45.53962305,-122.87690737649942
279,1578524419,HURON VALLEY HOSPITAL,https://www.dmc.org/patients/pricing-info-estimates/hospital-pricing-information,1 WILLIAM CARLS DR,COMMERCE,MI,483822201,2021-01-18 00:00:00 +0000 UTC,"['1 WILLIAM CARLS DR', 'COMMERCE', 'MI']",42.59258185,-83.49828343007397
280,1073511762,Baylor Scott & White Medical Center - Grapevine,https://www.bswhealth.com/SiteCollectionDocuments/patient-tools/estimate-cost-of-care/75-1777119_BAYLOR%20SCOTT%20&%20WHITE%20REGIONAL%20MEDICAL%20CENTER%20AT%20GRAPEVINE_standardcharges.csv,1650 W College St,Grapevine,TX,76051,,"['1650 W College St', 'Grapevine', 'TX']",32.933875150000006,-97.09405811661463
281,1578597993,The Johns Hopkins Hospital,https://jhm-web-assets.s3.amazonaws.com/hopkinsmedicine/prod/charge-fees/520591656_JohnsHopkinsHospital_standardcharges.csv,,,,,2021-01-01 00:00:00 +0000 UTC,"[nan, nan, nan]",NA,NA
282,1073530168,Desert View Regional Medical Center,https://uhsfilecdn.eskycity.net/ac/desert-view-hospital_standard-charges.csv,360 S Lola Ln,Pahrump,NV,89048,,"['360 S Lola Ln', 'Pahrump', 'NV']",36.21425155,-116.02477662635854
283,1578626875,St. Luke's Baptist Hospital,https://www.baptisthealthsystem.com/docs/global/standard-charges/760714523_st-luke'sbaptisthospital_standardcharges.json?sfvrsn=35454cc7_4&download=true,7930 Floyd Curl Dr.,San Antonio,TX,78229,,"['7930 Floyd Curl Dr.', 'San Antonio', 'TX']",29.512117222222223,-98.57617883838384
284,1073547295,Aurora St Luke's South Shore,https://www.aurorahealthcare.org/-/media/aurorahealthcareorg/documents/billing-insurance/pricing-transparency/south-shore-pt1-publication-20210101.xlsx?la=en&hash=5B65406704258899B6FCFD6EB7FA775EB70D2908,5900 S Lake Dr,Cudahy,WI,53110-3171,,"['5900 S Lake Dr', 'Cudahy', 'WI']",42.9366253,-87.85123574636903
285,1578677811,Brigham & Women Faulkner Hospital,https://healthcare.partners.org/pricetransparency/042768256_Brigham-and-Womens-Faulkner-Hospital_StandardCharges.zip,1153 Centre St,Boston,MA,02130,,"['1153 Centre St', 'Boston', 'MA']",42.3017598,-71.12855793387442
286,1073550133.0,Terre Haute Regional Hospital,https://regionalhospital.com/about/legal/pricing-transparency-cms-required-file-of-standard-charges.dot,3901 S 7th St,Terre Haute,IN,47802.0,2021-01-01 00:00:00 +0000 UTC,"['3901 S 7th St', 'Terre Haute', 'IN']",39.418213,-87.41023716785978
287,1578729653,Kimble Hospital - Health Clinic,https://kimblehospital.org/wp-content/uploads/2020/12/26-2294680_Kimble-Hospital_standardcharges.csv,349 Reid Rd,Junction,TX,76849,2020-12-01 00:00:00 +0000 UTC,"['349 Reid Rd', 'Junction', 'TX']",30.49868225,-99.78061638325434
288,1073562898,WILLIAM BEAUMONT HOSPITAL,https://www.beaumont.org/patients-families/billing/pricing/2021-beaumont-health-price-transparency-information,3601 W 13 MILE RD,ROYAL OAK,MI,48073-6712,2021-01-16 00:00:00 +0000 UTC,"['3601 W 13 MILE RD', 'ROYAL OAK', 'MI']",42.5134264,-83.1916698
289,1578741849,Baylor Scott & White Medical Center - Taylor,https://www.bswhealth.com/SiteCollectionDocuments/patient-tools/estimate-cost-of-care/74-1595711_BAYLOR%20SCOTT%20&%20WHITE%20%20MEDICAL%20CENTER%20AT%20TAYLOR_standardcharges.csv,305 Mallard Ln,Taylor,TX,76574,,"['305 Mallard Ln', 'Taylor', 'TX']",30.591235400000002,-97.41495554536058
290,1073568978,McLaren Caro Region,https://www.mclaren.org/Uploads/Public/Documents/corporate/ChargeMasterFile/2021/38-3426063_McLarenCaroCommunityHospital_standardcharges.csv,401 N Hooper St,Caro,MI,48723,2021-01-01 00:00:00 +0000 UTC,"['401 N Hooper St', 'Caro', 'MI']",43.49323755,-83.40819144195896
291,1215948096,PANHANDLE EMERGENCY PHYSICIANS,https://healthcare.ascension.org/-/media/project/ascension/healthcare/price-transparency-files/fl/590634434_ascension-sacred-heart-pensacola_standardcharges.xlsx,5151 N 9TH AVE,PENSACOLA,FL,32504-8721,,"['5151 N 9TH AVE', 'PENSACOLA', 'FL']",30.4768751,-87.2116442
292,1215969787,The Hospitals of Providence Sierra Campus,https://www.thehospitalsofprovidence.com/docs/global/standard-charges/954537720_thehospitalsofprovidencesierracampus_standardcharges.json?sfvrsn=803dfdaa_4&download=true,1625 Medical Center Dr.,El Paso,TX,79902,,"['1625 Medical Center Dr.', 'El Paso', 'TX']",NA,NA
293,1215974134,Raulerson Hospital,https://raulersonhospital.com/about/legal/pricing-transparency-cms-required-file-of-standard-charges.dot,1796 Hwy 441 North,Okeechobee,FL,34972,2021-01-01 00:00:00 +0000 UTC,"['1796 Hwy 441 North', 'Okeechobee', 'FL']",NA,NA
294,1215974134.0,Raulerson Hospital,https://raulersonhospital.com/about/legal/pricing-transparency-cms-required-file-of-standard-charges.dot,1796 Hwy 441 North,Okeechobee,FL,34972.0,2021-01-01 00:00:00 +0000 UTC,"['1796 Hwy 441 North', 'Okeechobee', 'FL']",NA,NA
295,1215981295,Los Robles Regional Medical Center,https://losrobleshospital.com/about/legal/pricing-transparency-cms-required-file-of-standard-charges.dot,215 West Janss Rd,Thousand Oaks,CA,91360,2021-01-01 00:00:00 +0000 UTC,"['215 West Janss Rd', 'Thousand Oaks', 'CA']",34.206534838188354,-118.88260661109992
296,1215989611,Fairview Hospital,https://my.clevelandclinic.org/-/scassets/files/org/patients-visitors/hospital-standard-charge-files/fairview-hospital.ashx,18101 Lorain Ave.,Cleveland,OH,44111,2020-12-31 00:00:00 +0000 UTC,"['18101 Lorain Ave.', 'Cleveland', 'OH']",41.450417200000004,-81.8240926911522
297,1215989975.0,Medical City Denton,https://medicalcitydenton.com/about/legal/pricing-transparency-cms-required-file-of-standard-charges.dot,13155 Noel Rd. Suite 200,Dallas,TX,75240.0,2021-01-01 00:00:00 +0000 UTC,"['13155 Noel Rd. Suite 200', 'Dallas', 'TX']",NA,NA
298,1225001928,Encompass Health Rehabilitation Hospital of Albuquerque,https://encompasshealth.com/locations/albuquerquerehab/transparency-healthcare,7000 JEFFERSON ST NE,ALBUQUERQUE,NM,871094313,,"['7000 JEFFERSON ST NE', 'ALBUQUERQUE', 'NM']",35.16037998644137,-106.59314435844027
299,1225001936,Encompass Health Rehabilitation Hospital of Concord,https://encompasshealth.com/locations/concordrehab/transparency-healthcare,254 PLEASANT ST,CONCORD,NH,033012551,,"['254 PLEASANT ST', 'CONCORD', 'NH']",43.19654891162641,-71.5629396170053
300,1225042963,"OAKWOOD HEALTHCARE, INC.",https://www.beaumont.org/patients-families/billing/pricing/2021-beaumont-health-price-transparency-information,33155 ANNAPOLIS ST,WAYNE,MI,48184-2405,2021-01-17 00:00:00 +0000 UTC,"['33155 ANNAPOLIS ST', 'WAYNE', 'MI']",42.2728924,-83.36539705276817
301,1225049018,Essentia Health-Deer River,https://www.essentiahealth.org/app/files/public/3620/deer-river-hospital-service-charges.csv,115 10th Ave NE,Deer River,MN,56636,,"['115 10th Ave NE', 'Deer River', 'MN']",47.34375095,-93.79120839407389
302,1225067796,St. Francis Regional Medical Center Urgent Care,https://www.allinahealth.org/-/media/allina-health/files/customer-service/billing-and-insurance/363261413-st-francis-standardcharges.xlsx?la=en&hash=DCA9EC83037380D24AF6772E90DAC069,,Shakopee,MN,,,"[nan, 'Shakopee', 'MN']",NA,NA
303,1225071491,ASCENSION COLUMBIA ST MARY'S HOSPITAL MILWAUKEE,https://healthcare.ascension.org/-/media/project/ascension/healthcare/price-transparency-files/wi/390806315_ascension-columbia-st-marys-hospital-milwaukee-incl-columbia-st-marys-womens-hospital_standardcharges.xlsx,2323 N LAKE DR,MILWAUKEE,WI,53211-4508,,"['2323 N LAKE DR', 'MILWAUKEE', 'WI']",43.0614853,-87.8807149
304,1225085871,Lee's Summit Medical Center,https://leessummitmedicalcenter.com/about/legal/pricing-transparency-cms-required-file-of-standard-charges.dot,2100 SE Blue Parkway,Lees Summit,MO,64063,2021-01-01 00:00:00 +0000 UTC,"['2100 SE Blue Parkway', 'Lees Summit', 'MO']",NA,NA
305,1225087190,ASCENSION ST FRANCIS HOSPITAL,https://healthcare.ascension.org/-/media/project/ascension/healthcare/price-transparency-files/wi/390907740_ascension-st-francis-hospital_standardcharges.xlsx,3237 S 16TH ST,MILWAUKEE,WI,53215,,"['3237 S 16TH ST', 'MILWAUKEE', 'WI']",42.985754150000005,-87.93621578144732
306,1225088966,"OAKWOOD HEALTHCARE, INC.",https://www.beaumont.org/patients-families/billing/pricing/2021-beaumont-health-price-transparency-information,10000 TELEGRAPH RD,TAYLOR,MI,48180-3330,2021-01-17 00:00:00 +0000 UTC,"['10000 TELEGRAPH RD', 'TAYLOR', 'MI']",42.235226,-83.2765142986782
307,1225090954,St. Joseph Regional Medical Center,https://www.stjoeshealing.org/media/file/010212435_St_%20Joseph%20Hospital%20Bangor_Standard%20Charges.xml,415 6th St,Lewiston,ID,83501-2431,,"['415 6th St', 'Lewiston', 'ID']",46.4169158,-117.02438354954182
308,1225113376,Carondelet St. Mary's Hospital,https://www.carondelet.org/docs/global/standard-charges/474131755_carondeletst-mary'shospital_standardcharges.json?sfvrsn=333666fd_4&download=true,1601 W. St. Mary's Road,Tucson,AZ,85745,,"[""1601 W. St. Mary's Road"", 'Tucson', 'AZ']",32.227313249999995,-111.00016597023536
309,1225150444,Doctors Hospital of Sarasota,https://doctorsofsarasota.com/about/legal/pricing-transparency-cms-required-file-of-standard-charges.dot,5731 Bee Ridge Rd,Sarasota,FL,34233,2021-01-01 00:00:00 +0000 UTC,"['5731 Bee Ridge Rd', 'Sarasota', 'FL']",27.30172495,-82.45364543448747
310,1225156888,Aurora Medical Center Kenosha,https://www.aurorahealthcare.org/-/media/aurorahealthcareorg/documents/billing-insurance/pricing-transparency/kenosha-pt1-publication-20210101.xlsx?la=en&hash=1A13AC9F96FDD430DD78A3B2A5DBC524C1E8B9EC,10400 75TH ST,KENOSHA,WI,53142,,"['10400 75TH ST', 'KENOSHA', 'WI']",42.570013849999995,-87.93548454019276
311,1225195340,IU Health Ball Memorial Hospital,https://cdn.iuhealth.org/resources/35-0867958_IU-Health-Ball-Memorial-Hospital_standardcharges.txt?mtime=20210202165406&focal=none,2401 W University Ave,Muncie,IN,47303,,"['2401 W University Ave', 'Muncie', 'IN']",40.19752030201342,-85.41412138255033
312,1225232366,Massachusetts General Hospital,https://www.massgeneral.org/notices/billing/CMS-required-hospital-charge-data,55 Fruit St,Boston,MA,02114,,"['55 Fruit St', 'Boston', 'MA']",42.36286045,-71.06875296664998
313,1225332471,Avera Creighton Hospital,https://www.avera.org/app/files/public/73999/creighton-hospital-pricing.xls,1503 Main St,Creighton,NE,68729-3019,,"['1503 Main St', 'Creighton', 'NE']",42.46599125,-97.91778190191235
314,1225589245,Franciscan Health Indianapolis,https://www.franciscanhealth.org/-/media/project/franciscan-health-alliance/franciscan-health/patient-resources/standard-charges/indianapolis_cdm.xlsx,,Indianapolis,IN,46237,,"[nan, 'Indianapolis', 'IN']",NA,NA
315,1235183542,South Pointe Hospital,https://my.clevelandclinic.org/-/scassets/files/org/patients-visitors/hospital-standard-charge-files/south-pointe-hospital.ashx,20000 Harvard Rd.,"Warrensville Heights,",OH,44128,2020-12-31 00:00:00 +0000 UTC,"['20000 Harvard Rd.', 'Warrensville Heights,', 'OH']",41.4496648,-81.4955101
316,1235326935,SINAI GRACE HOSPITAL,https://www.dmc.org/patients/pricing-info-estimates/hospital-pricing-information,6071 W OUTER DR,DETROIT,MI,482352624,2021-01-18 00:00:00 +0000 UTC,"['6071 W OUTER DR', 'DETROIT', 'MI']",42.41907925,-83.18238206795442
317,1235374034,DETROIT RECEIVING HOSPITAL,https://www.dmc.org/patients/pricing-info-estimates/hospital-pricing-information,4201 SAINT ANTOINE ST,DETROIT,MI,482012153,2021-01-18 00:00:00 +0000 UTC,"['4201 SAINT ANTOINE ST', 'DETROIT', 'MI']",42.353434199999995,-83.05467013655965
318,1235391053,AdventHealth Winter Park,https://www.adventhealth.com/sites/default/files/CDM/2021/591479658_AdventHealthOrlando_standardcharges.xml,3099 ALOMA AVE,Winter Park,FL,32792,,"['3099 ALOMA AVE', 'Winter Park', 'FL']",28.6004289,-81.3278031
319,1235406455,Sanford Aberdeen Medical Center,https://www.sanfordhealth.org/-/media/org/files/patients-and-visitors/billing-insurance/price-estimates/sanford-aberdeen-2021.csv?la=en&hash=36327CE7E06FCBBA6D7E7C819F9BDDAC947A147E,2905 3rd Ave Se,Aberdeen,SD,57401-5420,,"['2905 3rd Ave Se', 'Aberdeen', 'SD']",NA,NA
320,1235437401,Encompass Health Rehabilitation Hospital of Miami,https://www.encompasshealth.com/locations/miamirehab/transparency-healthcare,20601 OLD CUTLER ROAD,MIAMI,FL,33189,,"['20601 OLD CUTLER ROAD', 'MIAMI', 'FL']",25.5747,-80.3410287057593
321,1235515503,University Hospital,http://www.uhnj.org/transparency/files/221775306_UniversityHospital_StandardCharges.csv,150 Bergen St,Newark,NJ,07103,2021-01-01 00:00:00 +0000 UTC,"['150 Bergen St', 'Newark', 'NJ']",40.7405364,-74.19117585283874
322,1235614983,CarePartners Rehabilitation Hospital,https://missionhealth.org/kaGZs2YoXr/301114775_carepartners-rehabilitation-hospital_standardcharges.csv,,,,,2021-01-01 00:00:00 +0000 UTC,"[nan, nan, nan]",NA,NA
323,1235777616,HARBORVIEW MEDICAL CENTER,https://www.uwmedicine.org/patient-resources/billing-and-insurance/charge-description-master-codes/harborview-fee-schedules,325 9TH AVE,SEATTLE,WA,98104,,"['325 9TH AVE', 'SEATTLE', 'WA']",47.6051575,-122.3240344
324,1245203942,Encompass Health Rehabilitation Hospital of Richmond,https://encompasshealth.com/locations/richmondrehab/transparency-healthcare,5700 FITZHUGH AVE,RICHMOND,VA,23226,,"['5700 FITZHUGH AVE', 'RICHMOND', 'VA']",37.5711611,-77.4809363
325,1245221050,Rancho Springs Medical Center,https://uhsfilecdn.eskycity.net/ac/southwest-healthcare-system_standard-charges.csv,25500 Medical Center Drive,Murrieta,CA,92562,,"['25500 Medical Center Drive', 'Murrieta', 'CA']",33.5585562,-117.18338710854287
326,1245275734,BERT FISH MEDICAL CENTER INC,https://www.adventhealth.com/sites/default/files/CDM/2021/473793197_AdventHealthNew Smyrna_standardcharges.xml,401 PALMETTO ST,NEW SMYRNA BEACH,FL,32168,2021-01-26 00:00:00 +0000 UTC,"['401 PALMETTO ST', 'NEW SMYRNA BEACH', 'FL']",29.0205548,-80.92197859360465
327,1245278209,Essentia Health-Duluth (Miller-Dwan Building),https://www.essentiahealth.org/app/files/public/3625/miller-dwan-hospital-service-charges.csv,502 E 2nd St,Duluth,MN,55805,,"['502 E 2nd St', 'Duluth', 'MN']",NA,NA
328,1245282227.0,Brigham City Community Hospital,https://brighamcityhospital.com/about/legal/pricing-transparency-cms-required-file-of-standard-charges.dot,"6985 Union Park Center, Suite 500",Cottonwood Heights,UT,84047.0,2021-01-01 00:00:00 +0000 UTC,"['6985 Union Park Center, Suite 500', 'Cottonwood Heights', 'UT']",NA,NA
329,1245337286,SageWest - Riverton,http://www.sagewesthealthcare.com/Content/Uploads/SageWest Healthcare/images/621762468_Sage_West_Standard_Charges_12192020.zip,2100 West Sunset Drive,Riverton,WY,82501,,"['2100 West Sunset Drive', 'Riverton', 'WY']",43.0345921,-108.41885816937376
330,1306850854,"OAKWOOD HEALTHCARE, INC.",https://www.beaumont.org/patients-families/billing/pricing/2021-beaumont-health-price-transparency-information,10000 TELEGRAPH RD,TAYLOR,MI,48180-3330,2021-01-17 00:00:00 +0000 UTC,"['10000 TELEGRAPH RD', 'TAYLOR', 'MI']",42.235226,-83.2765142986782
331,1306854666,"OAKWOOD HEALTH PROMOTIONS, INC.",https://www.beaumont.org/patients-families/billing/pricing/2021-beaumont-health-price-transparency-information,16391 ROTUNDA DR,DEARBORN,MI,48120-1172,2021-01-17 00:00:00 +0000 UTC,"['16391 ROTUNDA DR', 'DEARBORN', 'MI']",42.30247465206445,-83.19562346343653
332,1306897277,Medical City Denton,https://core.secure.ehc.com/src/util/detail-price-list/62-1682213_medical-city-denton_standardcharges.csv,3535 S Interstate 35,Denton,TX,76210,2021-01-04 00:00:00 +0000 UTC,"['3535 S Interstate 35', 'Denton', 'TX']",NA,NA
333,1306898960,ASCENSION ST. VINCENT HOSPITAL,https://healthcare.ascension.org/-/media/project/ascension/healthcare/price-transparency-files/in/350869066_ascension-st-vincent-hospital_standardcharges.xlsx,2001 W 86TH ST,INDIANAPOLIS,IN,46260-1902,,"['2001 W 86TH ST', 'INDIANAPOLIS', 'IN']",39.907997,-86.196077
334,1306914882,Marshall Medical Center South,https://mmcenters.com/charges/7/get,2505 Us Hwy 431 N,Boaz,AL,35957-0758,,"['2505 Us Hwy 431 N', 'Boaz', 'AL']",NA,NA
335,1548247489,JANE PHILLIPS NOWATA HEALTH CENTER,https://healthcare.ascension.org/-/media/project/ascension/healthcare/price-transparency-files/ok/731440267_ascension-st-john-nowata_standardcharges.xlsx,237 S. LOCUST,NOWATA,OK,74048-0426,,"['237 S. LOCUST', 'NOWATA', 'OK']",NA,NA
336,1548250582,Northern Nevada Medical Center,https://uhsfilecdn.eskycity.net/ac/northern-nevada-medical-center_standard-charges.csv,2375 E Prater Way,Sparks,NV,89434-9641,,"['2375 E Prater Way', 'Sparks', 'NV']",39.5412265,-119.6975673
337,1043604226,AdventHealth Daytona Beach,https://www.adventhealth.com/sites/default/files/CDM/2021/590973502_AdventHealthDaytonaBeach_standardcharges.xml,10987 Sheldon Rd Ste 100,Tampa,FL,33626,2021-01-01 00:00:00 +0000 UTC,"['10987 Sheldon Rd Ste 100', 'Tampa', 'FL']",NA,NA
338,1548260284,IU Health Bedford Hospital,https://cdn.iuhealth.org/resources/23-7042323_IU-Health-Bedford-Hospital_standardcharges.txt?mtime=20210202164713&focal=none,2900 W 16th St,Bedford,IN,47421,,"['2900 W 16th St', 'Bedford', 'IN']",NA,NA
339,1043627474,Cleveland Clinic Main Campus,https://my.clevelandclinic.org/-/scassets/files/org/patients-visitors/hospital-standard-charge-files/cleveland-clinic-main-campus.ashx,9500 Euclid Ave,Cleveland,OH,44195,2020-12-31 00:00:00 +0000 UTC,"['9500 Euclid Ave', 'Cleveland', 'OH']",41.5030766,-81.6251531
340,1003833013,ASCENSION SETON HIGHLAND LAKES,https://healthcare.ascension.org/-/media/project/ascension/healthcare/price-transparency-files/tx/741109643_ascension-seton-highland-lakes_standardcharges.xlsx,3201 S WATER ST,BURNET,TX,78611-4510,,"['3201 S WATER ST', 'BURNET', 'TX']",30.7331706,-98.2361172477458
341,1003853185.0,Dominion Hospital,https://dominionhospital.com/about/legal/pricing-transparency-cms-required-file-of-standard-charges.dot,901 E. Cary St Suite 210,Richmond,VA,,2021-01-01 00:00:00 +0000 UTC,"['901 E. Cary St Suite 210', 'Richmond', 'VA']",NA,NA
342,1003858408,Frisbie Memorial Hospital,https://frisbiehospital.com/about/legal/pricing-transparency-cms-required-file-of-standard-charges.dot,11 Whitehall Road,Rochester,NH,03867,2021-01-01 00:00:00 +0000 UTC,"['11 Whitehall Road', 'Rochester', 'NH']",43.29683245,-70.95991279823082
343,1003858408.0,Frisbie Memorial Hospital,https://frisbiehospital.com/about/legal/pricing-transparency-cms-required-file-of-standard-charges.dot,11 Whitehall Road,Rochester,NH,3867.0,2021-01-01 00:00:00 +0000 UTC,"['11 Whitehall Road', 'Rochester', 'NH']",43.29683245,-70.95991279823082
344,1003862053.0,Doctors Hospital of Sarasota,https://doctorsofsarasota.com/about/legal/pricing-transparency-cms-required-file-of-standard-charges.dot,5731 Bee Ridge Rd,Sarasota,FL,34233.0,2021-01-01 00:00:00 +0000 UTC,"['5731 Bee Ridge Rd', 'Sarasota', 'FL']",27.30172495,-82.45364543448747
345,1003865825,WILLIAM BEAUMONT HOSPITAL,https://www.beaumont.org/patients-families/billing/pricing/2021-beaumont-health-price-transparency-information,3601 W 13 MILE RD,ROYAL OAK,MI,48073-6712,2021-01-16 00:00:00 +0000 UTC,"['3601 W 13 MILE RD', 'ROYAL OAK', 'MI']",42.5134264,-83.1916698
346,1003873225,The Specialty Hospital Of Meridian,https://www.rushhealthsystems.org/sites/rhs/assets/File/Patients%20and%20Visitors/Pricing%20Transparency/Specialty-Hospital.csv,1314 19th Ave,Meridian,MS,39301-4116,,"['1314 19th Ave', 'Meridian', 'MS']",32.3698251,-88.69675050000001
347,1003887266,Avera Missouri River Health Center,https://www.avera.org/app/files/public/74005/gettysburg-hospital-pricing.xls,606 E Garfield Ave,Gettysburg,SD,57442-1325,,"['606 E Garfield Ave', 'Gettysburg', 'SD']",45.0129432,-99.94757432003907
348,1003905092,Kula Hospital,https://res.cloudinary.com/dpmykpsih/raw/upload/maui-health-site-309/media/r/277d6ed9c75d432280af6ce579b68728/811559375_kulahospital_standarcharges.xlsx,628 Seventh Street,Lanai,HI,96763,,"['628 Seventh Street', 'Lanai', 'HI']",NA,NA
349,1003908443.0,Mercy Miami Hospital,https://mercymiami.com/about/legal/pricing-transparency-cms-required-file-of-standard-charges.dot,3663 S Miami Ave,Miami,FL,33133.0,2021-01-01 00:00:00 +0000 UTC,"['3663 S Miami Ave', 'Miami', 'FL']",25.7411276,-80.2142781767664
350,1013017839,ALEXIAN BROTHERS BEHAVIORAL HEALTH HOSPITAL,https://healthcare.ascension.org/-/media/project/ascension/healthcare/price-transparency-files/il/364251848_alexian-brothers-behavioral-health-hospital_standardcharges.xlsx,1650 MOON LAKE BOULEVARD,HOFFMAN ESTATES,IL,60169,,"['1650 MOON LAKE BOULEVARD', 'HOFFMAN ESTATES', 'IL']",42.054004899999995,-88.13752470983059
351,1013062769,Zion Medical Center,https://healthy.kaiserpermanente.org/content/dam/kporg/final/documents/health-plan-documents/coverage-information/941340523_SanDiegoMedicalCenter_standardcharges.xlsx,4647 Zion Ave,San Diego,CA,92120,2021-01-01 00:00:00 +0000 UTC,"['4647 Zion Ave', 'San Diego', 'CA']",32.79289074250992,-117.09547043640859
352,1013085083,Baylor Scott & White Continuing Care Hospital - Temple,https://www.bswhealth.com/SiteCollectionDocuments/patient-tools/estimate-cost-of-care/20-2850920_BAYLOR%20%20SCOTT%20&%20WHITE%20%20CONTINUING%20CARE%20HOSPITAL_standardcharges.csv,546 N Kegley Rd,Temple,TX,76502,,"['546 N Kegley Rd', 'Temple', 'TX']",31.1185285,-97.39746322916666
